~VERSION INFORMATION
VERS.           3.0   :CWLS Log ASCII Standard - VERSION 3.0
WRAP.           NO    :One Line per depth step
DLM.          SPACE   :Column Data Section Delimiter Character
PROD.  Schlumberger   :LAS Producer
PROG.  DLIS to ASCII 2.3                               :LAS Program name and version
CREA.        2019/12/12 08:42                          :LAS Creation date {YYYY/MM/DD hh:mm}
DLIS_CREA.  2010-Jan-21 21:56                          :DLIS Creation date and time {YYYY-MMM-DD hh:mm}
SOURCE.     RCI_k800g35.dlis                           :DLIS File Name
FILE-ID.     BATLAS.001                                :File Identification Number
#--------------------------------------------------
~WELL INFORMATION
#MNEM.UNIT      DATA             DESCRIPTION
#---- ------ --------------   -----------------------------
STRT .S            0.0       :START TIME
STOP .S          228.0       :STOP DEPTH
STEP .S            1.0       :STEP
NULL .          -999.25      :NULL VALUE
COMP .        ECOPETROL                                :COMPANY
WELL .        HECHICERA-1                              :WELL
FLD  .        CANO SUR                                 :FIELD
LOC  .                                                 :LOCATION
CNTY .                                                 :COUNTY
STAT .                                                 :STATE
CTRY .                                                 :COUNTRY
API  .                                                 :API NUMBER
UWI  .                                                 :UNIQUE WELL ID
DATE .                                                 :LOG DATE
SRVC .        ATLAS                                    :SERVICE COMPANY
LATI .DEG                                              :LATITUDE
LONG .DEG                                              :LONGITUDE
GDAT .                                                 :GeoDetic Datum
#-----------------------------------------------------------------------------
~PARAMETER INFORMATION
#MNEM.UNIT    VALUE                      DESCRIPTION
#---- -----   --------------------       ------------------------
RUN  .                                   :RUN NUMBER
PDAT .                                   :Permanent Datum
EPD  .                                   :Elevation of Permanent Datum above Mean Sea Level
LMF  .                                   :Logging Measured From (Name of Logging Elevation Reference)
APD  .                                   :Elevation of Depth Reference (LMF) above Permanent Datum
#-----------------------------------------------------------------------------
~CURVE INFORMATION
#MNEM.UNIT   API CODE                                  DESCRIPTION
#---- -----  --------                                  -----------------------
TTIM .S                                                :TIME {F10.1}
TIME .MS                                               :system time since record start {F13.4}
SEC  .S                                                :time in seconds {F13.4}
MIN  .MN                                               :time in minutes {F13.4}
ESEC .S                                                :Remainder of sec curve since RECORD mode started in seconds. {I11}
EMIN .MN                                               :Remainder of sec since RECORD mode started in minutes {I11}
EHR  .HR                                               :Whole hours since RECORD mode started. {I11}
HHMMSS.                                                :hours, minutes, seconds {I11}
BIT  .IN                                               :bit size {F13.4}
DEPTH.F                                                :system depth {F13.4}
WTBH .DEGF                                             :temperature of the borehole {F13.4}
WRM  .OHMM                                             :mud resistivity {F13.4}
APGC .PSI                                              :1970CB hydraulic system pressure {F13.4}
RTDC .DEGF                                             :1970CA motor temperature {F13.4}
ECLP .PSI                                              :pressure emergency close reservoir {F13.4}
FPAD .PSI                                              :packer extend pressure {F13.4}
RPAD .PSI                                              :packer retract pressure {F13.4}
RCPERM.                                                :Dielectric constant of fluid in R/C sensor {F13.4}
RCRES.OHMM                                             :Resistivity of fluid in R/C sensor {F13.4}
APQL .PSI                                              :1970LB Quartzdyne gauge pressure {F13.4}
ONESB.PSI                                              :Pressure less than 10 {F13.4}
TENSB.PSI                                              :Pressure less than 100.0 {F13.4}
DECSB.PSI                                              :Pressure less than 1.0 {F13.4}
HNDSB.PSI                                              :Pressure less than 0.1 {F13.4}
DPTL .P/MN                                             :1970LB differential pressure {F13.4}
RTDQL.DEGF                                             :1970LA Quartzdyne pressure gauge temperature {F13.4}
PEXR .PSI                                              :1970RB Pump Extend Pressure {F13.4}
PRER .PSI                                              :1970RB Pump Retracted Pressure {F13.4}
PSCR .                                                 :1970RB Pump Strokes Count {F13.4}
PTVR .C3                                               :1970RB Pumped volume {F13.4}
LMP  .CM                                               :pump piston position {F13.4}
PEXB .PSI                                              :piston extend pressure {F13.4}
PREB .PSI                                              :piston retract pressure {F13.4}
PVTT .DEGF                                             :pump chamber temperature {F13.4}
DDV  .C3                                               :drawdown volume {F13.4}
PVTV .C3                                               :PVT volume {F13.4}
PTV  .C3                                               :pt_vol for rci {F13.4}
BUQC .P/MN                                             :build-up quality curve {F13.4}
RTLQC.                                                 :Delta rtdql/delta time {F13.4}
RTKQC.                                                 :Delta rtdqk/delta time {F13.4}
PLCOR.PSI                                              :apqk depth corrected {F13.4}
CPTV .C3                                               :Cumulative pump-through volume {F13.4}
TEN  .LBF                                              :differential tension {F13.4}
CHT4 .LBF                                              :cable head tension {F13.4}
CHT  .LBF                                              :cable head tension {F13.4}
TTEN .LBF                                              :total tension {F13.4}
TTIM .S                                                :  3.000000 s frame 1 time {F13.4}
CMOSS.J.                                               :Clausius-Mossotti Refractive Index {F13.4}
FLCH2.J.                                               :Flourescence channel 2 (475 nm) {F13.4}
FLCH3.J.                                               :Flourescence channel 3 (525 nm) {F13.4}
FLCH4.J.                                               :Flourescence channel 4 (575 nm) {F13.4}
FLCH5.J.                                               :Flourescence channel 5 (632 nm) {F13.4}
FLCH6.J.                                               :Flourescence channel 6 (694 nm) {F13.4}
GASF.J.                                                :Gas Fraction {F13.4}
M1.J .                                                 :1670 nanometer optical density {F13.4}
M2.J .                                                 :1682 nanometer optical density {F13.4}
MUDF.J.                                                :Mud Fraction {F13.4}
NACL.J.PPM                                             :NaCl Concentration {F13.4}
OD1.J.                                                 :Optical Density, Channel 1 {F13.4}
OD10.J.                                                :Optical Density, Channel 10 {F13.4}
OD11.J.                                                :Optical Density, Channel 11 {F13.4}
OD12.J.                                                :Optical Density, Channel 12 {F13.4}
OD13.J.                                                :Optical Density, Channel 13 {F13.4}
OD14.J.                                                :Optical Density, Channel 14 {F13.4}
OD15.J.                                                :Optical Density, Channel 15 {F13.4}
OD16.J.                                                :Optical Density, Channel 16 {F13.4}
OD17.J.                                                :Optical Density, Channel 17 {F13.4}
OD18.J.                                                :Optical Density, Channel 18 {F13.4}
OD19.J.                                                :Optical Density, Channel 19 {F13.4}
OD2.J.                                                 :Optical Density, Channel 2 {F13.4}
OD20.J.                                                :Optical Density, Channel 20 {F13.4}
OD21.J.                                                :Optical Density, Channel 21 {F13.4}
OD22.J.                                                :Optical Density, Channel 22 {F13.4}
OD23.J.                                                :Optical Density, Channel 23 {F13.4}
OD3.J.                                                 :Optical Density, Channel 3 {F13.4}
OD4.J.                                                 :Optical Density, Channel 4 {F13.4}
OD5.J.                                                 :Optical Density, Channel 5 {F13.4}
OD6.J.                                                 :Optical Density, Channel 6 {F13.4}
OD7.J.                                                 :Optical Density, Channel 7 {F13.4}
OD8.J.                                                 :Optical Density, Channel 8 {F13.4}
OD9.J.                                                 :Optical Density, Channel 9 {F13.4}
OILF.J.                                                :Oil Fraction {F13.4}
REFRI.J.                                               :Refractive index, 1740 nm {F13.4}
WTRF.J.                                                :Water Fraction {F13.4}
#-----------------------------------------------------------------------------
#
#     TTIM        TIME         SEC          MIN          ESEC            EMIN            EHR             HHMMSS          BIT         DEPTH         WTBH         WRM          APGC         RTDC         ECLP         FPAD         RPAD        RCPERM       RCRES         APQL        ONESB        TENSB        DECSB        HNDSB         DPTL        RTDQL         PEXR         PRER         PSCR         PTVR         LMP          PEXB         PREB         PVTT         DDV          PVTV         PTV          BUQC        RTLQC        RTKQC        PLCOR         CPTV         TEN          CHT4         CHT          TTEN         TTIM       CMOSS.J      FLCH2.J      FLCH3.J      FLCH4.J      FLCH5.J      FLCH6.J       GASF.J        M1.J         M2.J        MUDF.J       NACL.J       OD1.J        OD10.J       OD11.J       OD12.J       OD13.J       OD14.J       OD15.J       OD16.J       OD17.J       OD18.J       OD19.J       OD2.J        OD20.J       OD21.J       OD22.J       OD23.J       OD3.J        OD4.J        OD5.J        OD6.J        OD7.J        OD8.J        OD9.J        OILF.J      REFRI.J       WTRF.J
#
~Ascii | Curve
# ...
     152.0  152000.0000     152.0000       2.5334         32          2          0     224206       8.5000    2853.5259     454.8964      42.3413     157.0000     219.7400    2850.0000    2869.0000       0.0000      78.0000       0.3268    1404.4204       4.4204       4.4204       0.4204       0.0204       0.2764     160.5314      83.0000       4.0000       4.0000    1999.9996      12.6927    1872.0000       0.0000     155.1200       0.0000       0.0000       0.0000       0.1274       0.1651       0.1651    1407.2767       0.0000     -10.1398   -2626.9114   -2626.9114    2682.4480     152.0000       0.9125    2815.7076    2052.5776    1942.1179    1128.7135    1236.0432       0.0000       4.4335       4.7980       1.0000 -999999.9999       3.8302       5.4631       5.5559       5.1717       4.8569       5.2497       5.1298       5.1902       4.3618       4.4335       4.7980       4.0706       5.0927       4.3735      -0.4440       0.6150       4.9286       4.8384       5.1313       6.2652       5.3730       5.8827       4.9890       0.0000       5.6836       0.0000
     153.0  153000.0000     153.0000       2.5501         33          2          0     224207       8.5000    2853.5259     454.8964      42.1769     152.0000     220.1000    2845.0000    2855.0000       0.0000      78.0000       0.3244    1404.4203       4.4203       4.4203       0.4203       0.0203       0.2674     160.5341      88.0000       4.0000       4.0000    1999.9996      12.6936    1877.0000       0.0000     155.4800       0.0000       0.0000       0.0000       0.0990       0.1637       0.1637    1407.2766       0.0000     -11.1240   -2658.5222   -2658.5222    2681.3535     153.0000       0.9125    2760.3955    2042.1621    1949.8624    1097.4419    1276.9766       0.0000       4.5477       4.8831       1.0000 -999999.9999       3.8464       5.4367       5.6812       5.3511       5.0786       5.2635       5.4228       4.8431       3.9635       4.5477       4.8831       3.9495       5.2124       4.6775      -0.4523       0.6150       5.1140       4.4416       4.9306       6.5986       5.4521       5.5817       5.1039       0.0000       5.6836       0.0000
     154.0  154000.0000     154.0000       2.5667         34          2          0     224208       8.5000    2853.5259     454.8964      42.3031     154.0000     220.1000    2845.0000    2864.0000       0.0000      78.0000       0.3256    1404.4253       4.4253       4.4253       0.4253       0.0253       0.2539     160.5370      83.0000       0.0000       4.0000    1999.9996      12.6913    1867.0000       0.0000     155.1200       0.0000       0.0000       0.0000       0.0783       0.1637       0.1637    1407.2816       0.0000       2.2769   -2597.2725   -2597.2725    2694.7441     154.0000       0.9146    2867.7217    1992.7237    1866.7174    1147.9618    1259.8308       0.0000       4.4209       4.6622       1.0000 -999999.9999       3.7422       5.4144       5.4675       5.2444       4.8873       5.3962       5.4715       4.8569       4.0946       4.4209       4.6622       4.1459       4.9278       4.4142      -0.0738       0.6150       5.2144       4.5620       5.2639       6.0575       5.7992       5.4227       5.1968       0.0000       5.7576       0.0000
     155.0  155000.0000     155.0000       2.5834         35          2          0     224209       8.5000    2853.5259     454.8964      42.4059     153.0000     221.1800    2835.0000    2850.0000       0.0000      78.0000       0.3236    1404.4445       4.4445       4.4445       0.4445       0.0444       0.2509     160.5398      83.0000       0.0000       4.0000    1999.9996      12.6864    1867.0000       0.0000     155.6600       0.0000       0.0000       0.0000       0.0900       0.1658       0.1658    1407.3008       0.0000      -9.9132   -2614.7800   -2614.7800    2682.4480     155.0000       0.9166    2975.0479    1943.2852    1783.5724    1198.4816    1242.6850       0.0000       4.2942       4.4413       1.0000 -999999.9999       3.6381       5.3921       5.2539       5.1376       4.6959       5.5288       5.5203       4.8707       4.2257       4.2942       4.4413       4.3423       4.6432       4.1509       0.3048       0.6151       5.3147       4.6823       5.5973       5.5164       6.1464       5.2636       5.2897       0.0000       5.8316       0.0000
     156.0  156000.0000     156.0000       2.6001         36          2          0     224210       8.5000    2853.5259     454.8964      42.2180     154.0000     219.9200    2855.0000    2864.0000       0.0000      78.0000       0.3245    1404.4603       4.4603       4.4603       0.4603       0.0603       0.2524     160.5425      78.0000       0.0000       4.0000    1999.9996      12.6943    1867.0000       0.0000     155.4800       0.0000       0.0000       0.0000       0.1364       0.1666       0.1666    1407.3167       0.0000      -7.4269   -2535.1582   -2535.1582    2684.9307     156.0000       0.9186    3082.3740    1893.8468    1700.4274    1249.0015    1225.5392       0.0000       4.1675       4.2204       1.0000 -999999.9999       3.5339       5.3698       5.0402       5.0308       4.5046       5.6615       5.5690       4.8845       4.3568       4.1675       4.2204       4.5386       4.3586       3.8875       0.6833       0.6152       5.4151       4.8027       5.9306       4.9753       6.4935       5.1046       5.3826       0.0000       5.9055       0.0000
     157.0  157000.0000     157.0000       2.6167         37          2          0     224211       8.5000    2853.5259     454.8964      42.3024     152.0000     219.9200    2840.0000    2860.0000       0.0000      78.0000       0.3246    1404.4756       4.4756       4.4756       0.4756       0.0756       0.2539     160.5451      83.0000       4.0000       4.0000    1999.9996      12.6888    1867.0000       0.0000     155.3000       0.0000       0.0000       0.0000       0.2030       0.1652       0.1652    1407.3319       0.0000      12.7839   -2628.5269   -2628.5269    2705.1934     157.0000       0.9059    3095.1892    1840.0477    1710.0040    1341.1045    1222.9172       0.0000       4.1675       4.2204       1.0000 -999999.9999       3.5339       5.3698       5.0402       5.0308       4.5046       5.6615       5.5690       4.8845       4.3568       4.1675       4.2204       4.5386       4.3586       3.8875       0.6833       0.6152       5.4151       4.8027       5.9306       4.9753       6.4935       5.1046       5.3826       0.0000       5.5379       0.0000
     158.0  158000.0000     158.0000       2.6334         38          2          0     224212       8.5000    2853.5259     454.8964      42.1899     152.0000     220.6400    2845.0000    2860.0000       0.0000      78.0000       0.3254    1404.4806       4.4806       4.4806       0.4806       0.0806       0.2539     160.5477      83.0000       0.0000       4.0000    1999.9996      12.6896    1872.0000       0.0000     155.4800       0.0000       0.0000       0.0000       0.2617       0.1645       0.1645    1407.3369       0.0000     -11.2187   -2599.1423   -2599.1423    2681.1367     158.0000       0.8931    3108.0044    1786.2487    1719.5807    1433.2076    1220.2951       0.0000       4.1675       4.2204       1.0000 -999999.9999       3.5339       5.3698       5.0402       5.0308       4.5046       5.6615       5.5690       4.8845       4.3568       4.1675       4.2204       4.5386       4.3586       3.8875       0.6833       0.6152       5.4151       4.8027       5.9306       4.9753       6.4935       5.1046       5.3826       0.0000       5.1704       0.0000
     159.0  159000.0000     159.0000       2.6501         39          2          0     224213       8.5000    2853.5259     454.8964      42.2118     152.0000     220.4600    2840.0000    2860.0000       0.0000      78.0000       0.3255    1404.4785       4.4785       4.4785       0.4785       0.0785       0.2464     160.5507      83.0000       0.0000       4.0000    1999.9996      12.6927    1867.0000       0.0000     155.4800       0.0000       0.0000       0.0000       0.2943       0.1642       0.1642    1407.3348       0.0000     -11.1046   -2624.7417   -2624.7417    2681.1367     159.0000       0.8803    3120.8196    1732.4496    1729.1573    1525.3107    1217.6731       0.0000       4.1675       4.2204       1.0000 -999999.9999       3.5339       5.3698       5.0402       5.0308       4.5046       5.6615       5.5690       4.8845       4.3568       4.1675       4.2204       4.5386       4.3586       3.8875       0.6833       0.6152       5.4151       4.8027       5.9306       4.9753       6.4935       5.1046       5.3826       0.0000       4.8028       0.0000
