~VERSION INFORMATION
VERS.           3.0   :CWLS Log ASCII Standard - VERSION 3.0
WRAP.           NO    :One Line per depth step
DLM.          SPACE   :Column Data Section Delimiter Character
PROD.  Schlumberger   :LAS Producer
PROG.  DLIS to ASCII 2.3                               :LAS Program name and version
CREA.        2019/12/12 08:42                          :LAS Creation date {YYYY/MM/DD hh:mm}
DLIS_CREA.  2010-Jan-21 21:56                          :DLIS Creation date and time {YYYY-MMM-DD hh:mm}
SOURCE.     RCI_k800g35.dlis                           :DLIS File Name
FILE-ID.     BATLAS.001                                :File Identification Number
#--------------------------------------------------
~WELL INFORMATION
#MNEM.UNIT      DATA             DESCRIPTION
#---- ------ --------------   -----------------------------
STRT .S            0.0       :START TIME
STOP .S          228.0       :STOP DEPTH
STEP .S            1.0       :STEP
NULL .          -999.25      :NULL VALUE
COMP .        ECOPETROL                                :COMPANY
WELL .        HECHICERA-1                              :WELL
FLD  .        CANO SUR                                 :FIELD
LOC  .                                                 :LOCATION
CNTY .                                                 :COUNTY
STAT .                                                 :STATE
CTRY .                                                 :COUNTRY
API  .                                                 :API NUMBER
UWI  .                                                 :UNIQUE WELL ID
DATE .                                                 :LOG DATE
SRVC .        ATLAS                                    :SERVICE COMPANY
LATI .DEG                                              :LATITUDE
LONG .DEG                                              :LONGITUDE
GDAT .                                                 :GeoDetic Datum
#-----------------------------------------------------------------------------
~PARAMETER INFORMATION
#MNEM.UNIT    VALUE                      DESCRIPTION
#---- -----   --------------------       ------------------------
RUN  .                                   :RUN NUMBER
PDAT .                                   :Permanent Datum
EPD  .                                   :Elevation of Permanent Datum above Mean Sea Level
LMF  .                                   :Logging Measured From (Name of Logging Elevation Reference)
APD  .                                   :Elevation of Depth Reference (LMF) above Permanent Datum
#-----------------------------------------------------------------------------
~CURVE INFORMATION
#MNEM.UNIT   API CODE                                  DESCRIPTION
#---- -----  --------                                  -----------------------
TTIM .S                                                :TIME {F10.1}
TIME .MS                                               :system time since record start {F13.4}
SEC  .S                                                :time in seconds {F13.4}
MIN  .MN                                               :time in minutes {F13.4}
ESEC .S                                                :Remainder of sec curve since RECORD mode started in seconds. {I11}
EMIN .MN                                               :Remainder of sec since RECORD mode started in minutes {I11}
EHR  .HR                                               :Whole hours since RECORD mode started. {I11}
HHMMSS.                                                :hours, minutes, seconds {I11}
BIT  .IN                                               :bit size {F13.4}
DEPTH.F                                                :system depth {F13.4}
WTBH .DEGF                                             :temperature of the borehole {F13.4}
WRM  .OHMM                                             :mud resistivity {F13.4}
APGC .PSI                                              :1970CB hydraulic system pressure {F13.4}
RTDC .DEGF                                             :1970CA motor temperature {F13.4}
ECLP .PSI                                              :pressure emergency close reservoir {F13.4}
FPAD .PSI                                              :packer extend pressure {F13.4}
RPAD .PSI                                              :packer retract pressure {F13.4}
RCPERM.                                                :Dielectric constant of fluid in R/C sensor {F13.4}
RCRES.OHMM                                             :Resistivity of fluid in R/C sensor {F13.4}
APQL .PSI                                              :1970LB Quartzdyne gauge pressure {F13.4}
ONESB.PSI                                              :Pressure less than 10 {F13.4}
TENSB.PSI                                              :Pressure less than 100.0 {F13.4}
DECSB.PSI                                              :Pressure less than 1.0 {F13.4}
HNDSB.PSI                                              :Pressure less than 0.1 {F13.4}
DPTL .P/MN                                             :1970LB differential pressure {F13.4}
RTDQL.DEGF                                             :1970LA Quartzdyne pressure gauge temperature {F13.4}
PEXR .PSI                                              :1970RB Pump Extend Pressure {F13.4}
PRER .PSI                                              :1970RB Pump Retracted Pressure {F13.4}
PSCR .                                                 :1970RB Pump Strokes Count {F13.4}
PTVR .C3                                               :1970RB Pumped volume {F13.4}
LMP  .CM                                               :pump piston position {F13.4}
PEXB .PSI                                              :piston extend pressure {F13.4}
PREB .PSI                                              :piston retract pressure {F13.4}
PVTT .DEGF                                             :pump chamber temperature {F13.4}
DDV  .C3                                               :drawdown volume {F13.4}
PVTV .C3                                               :PVT volume {F13.4}
PTV  .C3                                               :pt_vol for rci {F13.4}
BUQC .P/MN                                             :build-up quality curve {F13.4}
RTLQC.                                                 :Delta rtdql/delta time {F13.4}
RTKQC.                                                 :Delta rtdqk/delta time {F13.4}
PLCOR.PSI                                              :apqk depth corrected {F13.4}
CPTV .C3                                               :Cumulative pump-through volume {F13.4}
TEN  .LBF                                              :differential tension {F13.4}
CHT4 .LBF                                              :cable head tension {F13.4}
CHT  .LBF                                              :cable head tension {F13.4}
TTEN .LBF                                              :total tension {F13.4}
TTIM .S                                                :  3.000000 s frame 1 time {F13.4}
CMOSS.J.                                               :Clausius-Mossotti Refractive Index {F13.4}
FLCH2.J.                                               :Flourescence channel 2 (475 nm) {F13.4}
FLCH3.J.                                               :Flourescence channel 3 (525 nm) {F13.4}
FLCH4.J.                                               :Flourescence channel 4 (575 nm) {F13.4}
FLCH5.J.                                               :Flourescence channel 5 (632 nm) {F13.4}
FLCH6.J.                                               :Flourescence channel 6 (694 nm) {F13.4}
GASF.J.                                                :Gas Fraction {F13.4}
M1.J .                                                 :1670 nanometer optical density {F13.4}
M2.J .                                                 :1682 nanometer optical density {F13.4}
MUDF.J.                                                :Mud Fraction {F13.4}
NACL.J.PPM                                             :NaCl Concentration {F13.4}
OD1.J.                                                 :Optical Density, Channel 1 {F13.4}
OD10.J.                                                :Optical Density, Channel 10 {F13.4}
OD11.J.                                                :Optical Density, Channel 11 {F13.4}
OD12.J.                                                :Optical Density, Channel 12 {F13.4}
OD13.J.                                                :Optical Density, Channel 13 {F13.4}
OD14.J.                                                :Optical Density, Channel 14 {F13.4}
OD15.J.                                                :Optical Density, Channel 15 {F13.4}
OD16.J.                                                :Optical Density, Channel 16 {F13.4}
OD17.J.                                                :Optical Density, Channel 17 {F13.4}
OD18.J.                                                :Optical Density, Channel 18 {F13.4}
OD19.J.                                                :Optical Density, Channel 19 {F13.4}
OD2.J.                                                 :Optical Density, Channel 2 {F13.4}
OD20.J.                                                :Optical Density, Channel 20 {F13.4}
OD21.J.                                                :Optical Density, Channel 21 {F13.4}
OD22.J.                                                :Optical Density, Channel 22 {F13.4}
OD23.J.                                                :Optical Density, Channel 23 {F13.4}
OD3.J.                                                 :Optical Density, Channel 3 {F13.4}
OD4.J.                                                 :Optical Density, Channel 4 {F13.4}
OD5.J.                                                 :Optical Density, Channel 5 {F13.4}
OD6.J.                                                 :Optical Density, Channel 6 {F13.4}
OD7.J.                                                 :Optical Density, Channel 7 {F13.4}
OD8.J.                                                 :Optical Density, Channel 8 {F13.4}
OD9.J.                                                 :Optical Density, Channel 9 {F13.4}
OILF.J.                                                :Oil Fraction {F13.4}
REFRI.J.                                               :Refractive index, 1740 nm {F13.4}
WTRF.J.                                                :Water Fraction {F13.4}
#-----------------------------------------------------------------------------
#
#     TTIM        TIME         SEC          MIN          ESEC            EMIN            EHR             HHMMSS          BIT         DEPTH         WTBH         WRM          APGC         RTDC         ECLP         FPAD         RPAD        RCPERM       RCRES         APQL        ONESB        TENSB        DECSB        HNDSB         DPTL        RTDQL         PEXR         PRER         PSCR         PTVR         LMP          PEXB         PREB         PVTT         DDV          PVTV         PTV          BUQC        RTLQC        RTKQC        PLCOR         CPTV         TEN          CHT4         CHT          TTEN         TTIM       CMOSS.J      FLCH2.J      FLCH3.J      FLCH4.J      FLCH5.J      FLCH6.J       GASF.J        M1.J         M2.J        MUDF.J       NACL.J       OD1.J        OD10.J       OD11.J       OD12.J       OD13.J       OD14.J       OD15.J       OD16.J       OD17.J       OD18.J       OD19.J       OD2.J        OD20.J       OD21.J       OD22.J       OD23.J       OD3.J        OD4.J        OD5.J        OD6.J        OD7.J        OD8.J        OD9.J        OILF.J      REFRI.J       WTRF.J
#
~Ascii | Curve
# ...
     104.0  104000.0000     104.0000       1.7334         44          1          0     224118       8.5000    2853.5259     454.8964      42.3205    2721.0000     217.2200    2860.0000    2904.0000       0.0000      78.0000       0.3226    1404.0449       4.0449       4.0449       0.0449       0.0449       1.0006     160.3972     102.0000      24.0000       4.0000    1999.9996      12.6888    1892.0000       0.0000     155.4800       0.0000       0.0000       0.0000      -0.3051       0.1681       0.1681    1406.9012       0.0000     -16.0505   -2629.5605   -2629.5605    2681.1367     104.0000       0.8858    3572.7507    2056.9097    2991.8663    2136.6130     993.1731       0.0000       4.3715       4.3775       1.0000 -999999.9999       3.6248       5.6150       5.6998       5.6483       4.8378       5.2957       6.0085       7.0556       4.1320       4.3715       4.3775       5.6953       4.9600       4.0677      -0.1430       0.6157       5.4870       5.0979       8.3841       5.3200       5.6483       8.3946       5.2995       0.0000       4.9254       0.0000
     105.0  105000.0000     105.0000       1.7500         45          1          0     224119       8.5000    2853.5259     454.8964      42.1674     169.0000     214.7000    2835.0000    2908.0000       0.0000      78.0000       0.3224    1404.4574       4.4574       4.4574       0.4574       0.0574       0.8834     160.4000      88.0000       9.0000       4.0000    1999.9996      12.6901    1877.0000       0.0000     155.4800       0.0000       0.0000       0.0000       1.9974       0.1677       0.1677    1407.3137       0.0000     -11.8927   -2547.0337   -2547.0337    2685.1475     105.0000       0.8862    3526.2947    2060.8982    2967.0669    2103.8723     979.5284       0.0000       4.3715       4.0138       1.0000 -999999.9999       3.5383       5.7377       5.8853       5.9155       4.8055       5.2634       6.2679       5.5834       3.9823       4.3715       4.0138       6.4679       4.9113       3.7232      -0.3391       0.6157       5.8129       5.0298      10.0000       5.0303       5.6483      10.0000       5.6836       0.0000       4.9354       0.0000
     106.0  106000.0000     106.0000       1.7667         46          1          0     224120       8.5000    2853.5259     454.8964      42.2694     169.0000     214.8800    2845.0000    2899.0000       0.0000      78.0000       0.3195    1404.1796       4.1796       4.1796       0.1796       0.0795       0.7692     160.4028      88.0000      14.0000       4.0000    1999.9996      12.6907    1872.0000       0.0000     155.1200       0.0000       0.0000       0.0000       3.1896       0.1670       0.1670    1407.0359       0.0000     -14.1167   -2644.1069   -2644.1069    2682.9070     106.0000       0.8862    3479.8389    2064.8866    2942.2676    2071.1315     965.8837       0.0000       4.3715       4.0138       1.0000 -999999.9999       3.5383       5.7377       5.8853       5.9155       4.8055       5.2634       6.2679       5.5834       3.9823       4.3715       4.0138       6.4679       4.9113       3.7232      -0.3391       0.6157       5.8129       5.0298      10.0000       5.0303       5.6483      10.0000       5.6836       0.0000       4.9354       0.0000
     107.0  107000.0000     107.0000       1.7834         47          1          0     224121       8.5000    2853.5259     454.8964      42.3240     168.0000     213.9800    2855.0000    2904.0000       0.0000      78.0000       0.3218    1404.0173       4.0173       4.0173       0.0173       0.0173       0.6731     160.4055      88.0000      19.0000       4.0000    1999.9996      12.6906    1867.0000       0.0000     155.4800       0.0000       0.0000       0.0000       3.1189       0.1667       0.1667    1406.8737       0.0000     -16.9935   -2605.1685   -2605.1685    2679.8257     107.0000       0.8862    3433.3831    2068.8751    2917.4683    2038.3907     952.2390       0.0000       4.3715       4.0138       1.0000 -999999.9999       3.5383       5.7377       5.8853       5.9155       4.8055       5.2634       6.2679       5.5834       3.9823       4.3715       4.0138       6.4679       4.9113       3.7232      -0.3391       0.6157       5.8129       5.0298      10.0000       5.0303       5.6483      10.0000       5.6836       0.0000       4.9354       0.0000
     108.0  108000.0000     108.0000       1.8000         48          1          0     224122       8.5000    2853.5259     454.8964      42.3155     172.0000     214.3400    2850.0000    2904.0000       0.0000      78.0000       0.3225    1403.9353       3.9353       3.9353       0.9353       0.0353       0.5829     160.4087      88.0000       9.0000       4.0000    1999.9996      12.6896    1882.0000       0.0000     155.3000       0.0000       0.0000       0.0000       2.6952       0.1700       0.1700    1406.7916       0.0000     -19.2206   -2669.1897   -2669.1897    2677.3428     108.0000       0.8862    3386.9272    2072.8635    2892.6689    2005.6499     938.5943       0.0000       4.3715       4.0138       1.0000 -999999.9999       3.5383       5.7377       5.8853       5.9155       4.8055       5.2634       6.2679       5.5834       3.9823       4.3715       4.0138       6.4679       4.9113       3.7232      -0.3391       0.6157       5.8129       5.0298      10.0000       5.0303       5.6483      10.0000       5.6836       0.0000       4.9354       0.0000
     109.0  109000.0000     109.0000       1.8167         49          1          0     224123       8.5000    2853.5259     454.8964      42.4353     170.0000     214.7000    2806.0000    2904.0000       0.0000      78.0000       0.3211    1403.9167       3.9167       3.9167       0.9167       0.0167       0.4928     160.4114      88.0000      14.0000       4.0000    1999.9996      12.6923    1867.0000       0.0000     154.9400       0.0000       0.0000       0.0000       2.1486       0.1704       0.1704    1406.7731       0.0000     -15.2693   -2652.0474   -2652.0474    2681.1367     109.0000       0.9143    3177.3722    2047.9852    2840.7486    2007.7935     891.8323       0.0000       4.5628       4.0765       1.0000 -999999.9999       3.6665       5.6257       5.8172       5.7147       4.7962       5.4377       5.9081       5.2066       4.1620       4.5628       4.0765       5.8165       4.7706       3.8532      -0.0986       0.6155       7.2086       4.9712       8.2667       5.0871       5.5199       8.7279       5.4981       0.0000       6.6236       0.0000
     110.0  110000.0000     110.0000       1.8334         50          1          0     224124       8.5000    2853.5259     454.8964      42.3904     174.0000     214.3400    2855.0000    2899.0000       0.0000      78.0000       0.3199    1403.9153       3.9153       3.9153       0.9153       0.0153       0.2840     160.4144      83.0000       9.0000       4.0000    1999.9996      12.6907    1872.0000       0.0000     155.1200       0.0000       0.0000       0.0000       1.5852       0.1712       0.1712    1406.7716       0.0000     -27.3709   -2707.1313   -2707.1313    2668.8401     110.0000       0.9425    2967.8171    2023.1069    2788.8283    2009.9370     845.0702       0.0000       4.7542       4.1391       1.0000 -999999.9999       3.7946       5.5138       5.7492       5.5140       4.7868       5.6120       5.5484       4.8299       4.3418       4.7542       4.1391       5.1651       4.6299       3.9832       0.1418       0.6153       8.6043       4.9125       6.5335       5.1438       5.3914       7.4558       5.3127       0.0000       8.3118       0.0000
     111.0  111000.0000     111.0000       1.8500         51          1          0     224125       8.5000    2853.5259     454.8964      42.2011     165.0000     214.5200    2850.0000    2899.0000       0.0000      78.0000       0.3229    1403.9324       3.9324       3.9324       0.9324       0.0324       0.0045     160.4168      88.0000       9.0000       4.0000    1999.9996      12.6905    1877.0000       0.0000     155.1200       0.0000       0.0000       0.0000       1.0640       0.1714       0.1714    1406.7887       0.0000     -11.3910   -2637.5742   -2637.5742    2684.7141     111.0000       0.9706    2758.2620    1998.2285    2736.9080    2012.0806     798.3082       0.0000       4.9455       4.2018       1.0000 -999999.9999       3.9227       5.4019       5.6811       5.3133       4.7775       5.7863       5.1887       4.4531       4.5216       4.9455       4.2018       4.5137       4.4893       4.1132       0.3822       0.6151      10.0000       4.8538       4.8002       5.2006       5.2630       6.1837       5.1273       0.0000      10.0000       0.0000
