~VERSION INFORMATION
VERS.           3.0   :CWLS Log ASCII Standard - VERSION 3.0
WRAP.           NO    :One Line per depth step
DLM.          SPACE   :Column Data Section Delimiter Character
PROD.  Schlumberger   :LAS Producer
PROG.  DLIS to ASCII 2.3                               :LAS Program name and version
CREA.        2019/12/12 08:42                          :LAS Creation date {YYYY/MM/DD hh:mm}
DLIS_CREA.  2010-Jan-21 21:56                          :DLIS Creation date and time {YYYY-MMM-DD hh:mm}
SOURCE.     RCI_k800g35.dlis                           :DLIS File Name
FILE-ID.     BATLAS.001                                :File Identification Number
#--------------------------------------------------
~WELL INFORMATION
#MNEM.UNIT      DATA             DESCRIPTION
#---- ------ --------------   -----------------------------
STRT .S            0.0       :START TIME
STOP .S          228.0       :STOP DEPTH
STEP .S            1.0       :STEP
NULL .          -999.25      :NULL VALUE
COMP .        ECOPETROL                                :COMPANY
WELL .        HECHICERA-1                              :WELL
FLD  .        CANO SUR                                 :FIELD
LOC  .                                                 :LOCATION
CNTY .                                                 :COUNTY
STAT .                                                 :STATE
CTRY .                                                 :COUNTRY
API  .                                                 :API NUMBER
UWI  .                                                 :UNIQUE WELL ID
DATE .                                                 :LOG DATE
SRVC .        ATLAS                                    :SERVICE COMPANY
LATI .DEG                                              :LATITUDE
LONG .DEG                                              :LONGITUDE
GDAT .                                                 :GeoDetic Datum
#-----------------------------------------------------------------------------
~PARAMETER INFORMATION
#MNEM.UNIT    VALUE                      DESCRIPTION
#---- -----   --------------------       ------------------------
RUN  .                                   :RUN NUMBER
PDAT .                                   :Permanent Datum
EPD  .                                   :Elevation of Permanent Datum above Mean Sea Level
LMF  .                                   :Logging Measured From (Name of Logging Elevation Reference)
APD  .                                   :Elevation of Depth Reference (LMF) above Permanent Datum
#-----------------------------------------------------------------------------
~CURVE INFORMATION
#MNEM.UNIT   API CODE                                  DESCRIPTION
#---- -----  --------                                  -----------------------
TTIM .S                                                :TIME {F10.1}
TIME .MS                                               :system time since record start {F13.4}
SEC  .S                                                :time in seconds {F13.4}
MIN  .MN                                               :time in minutes {F13.4}
ESEC .S                                                :Remainder of sec curve since RECORD mode started in seconds. {I11}
EMIN .MN                                               :Remainder of sec since RECORD mode started in minutes {I11}
EHR  .HR                                               :Whole hours since RECORD mode started. {I11}
HHMMSS.                                                :hours, minutes, seconds {I11}
BIT  .IN                                               :bit size {F13.4}
DEPTH.F                                                :system depth {F13.4}
WTBH .DEGF                                             :temperature of the borehole {F13.4}
WRM  .OHMM                                             :mud resistivity {F13.4}
APGC .PSI                                              :1970CB hydraulic system pressure {F13.4}
RTDC .DEGF                                             :1970CA motor temperature {F13.4}
ECLP .PSI                                              :pressure emergency close reservoir {F13.4}
FPAD .PSI                                              :packer extend pressure {F13.4}
RPAD .PSI                                              :packer retract pressure {F13.4}
RCPERM.                                                :Dielectric constant of fluid in R/C sensor {F13.4}
RCRES.OHMM                                             :Resistivity of fluid in R/C sensor {F13.4}
APQL .PSI                                              :1970LB Quartzdyne gauge pressure {F13.4}
ONESB.PSI                                              :Pressure less than 10 {F13.4}
TENSB.PSI                                              :Pressure less than 100.0 {F13.4}
DECSB.PSI                                              :Pressure less than 1.0 {F13.4}
HNDSB.PSI                                              :Pressure less than 0.1 {F13.4}
DPTL .P/MN                                             :1970LB differential pressure {F13.4}
RTDQL.DEGF                                             :1970LA Quartzdyne pressure gauge temperature {F13.4}
PEXR .PSI                                              :1970RB Pump Extend Pressure {F13.4}
PRER .PSI                                              :1970RB Pump Retracted Pressure {F13.4}
PSCR .                                                 :1970RB Pump Strokes Count {F13.4}
PTVR .C3                                               :1970RB Pumped volume {F13.4}
LMP  .CM                                               :pump piston position {F13.4}
PEXB .PSI                                              :piston extend pressure {F13.4}
PREB .PSI                                              :piston retract pressure {F13.4}
PVTT .DEGF                                             :pump chamber temperature {F13.4}
DDV  .C3                                               :drawdown volume {F13.4}
PVTV .C3                                               :PVT volume {F13.4}
PTV  .C3                                               :pt_vol for rci {F13.4}
BUQC .P/MN                                             :build-up quality curve {F13.4}
RTLQC.                                                 :Delta rtdql/delta time {F13.4}
RTKQC.                                                 :Delta rtdqk/delta time {F13.4}
PLCOR.PSI                                              :apqk depth corrected {F13.4}
CPTV .C3                                               :Cumulative pump-through volume {F13.4}
TEN  .LBF                                              :differential tension {F13.4}
CHT4 .LBF                                              :cable head tension {F13.4}
CHT  .LBF                                              :cable head tension {F13.4}
TTEN .LBF                                              :total tension {F13.4}
TTIM .S                                                :  3.000000 s frame 1 time {F13.4}
CMOSS.J.                                               :Clausius-Mossotti Refractive Index {F13.4}
FLCH2.J.                                               :Flourescence channel 2 (475 nm) {F13.4}
FLCH3.J.                                               :Flourescence channel 3 (525 nm) {F13.4}
FLCH4.J.                                               :Flourescence channel 4 (575 nm) {F13.4}
FLCH5.J.                                               :Flourescence channel 5 (632 nm) {F13.4}
FLCH6.J.                                               :Flourescence channel 6 (694 nm) {F13.4}
GASF.J.                                                :Gas Fraction {F13.4}
M1.J .                                                 :1670 nanometer optical density {F13.4}
M2.J .                                                 :1682 nanometer optical density {F13.4}
MUDF.J.                                                :Mud Fraction {F13.4}
NACL.J.PPM                                             :NaCl Concentration {F13.4}
OD1.J.                                                 :Optical Density, Channel 1 {F13.4}
OD10.J.                                                :Optical Density, Channel 10 {F13.4}
OD11.J.                                                :Optical Density, Channel 11 {F13.4}
OD12.J.                                                :Optical Density, Channel 12 {F13.4}
OD13.J.                                                :Optical Density, Channel 13 {F13.4}
OD14.J.                                                :Optical Density, Channel 14 {F13.4}
OD15.J.                                                :Optical Density, Channel 15 {F13.4}
OD16.J.                                                :Optical Density, Channel 16 {F13.4}
OD17.J.                                                :Optical Density, Channel 17 {F13.4}
OD18.J.                                                :Optical Density, Channel 18 {F13.4}
OD19.J.                                                :Optical Density, Channel 19 {F13.4}
OD2.J.                                                 :Optical Density, Channel 2 {F13.4}
OD20.J.                                                :Optical Density, Channel 20 {F13.4}
OD21.J.                                                :Optical Density, Channel 21 {F13.4}
OD22.J.                                                :Optical Density, Channel 22 {F13.4}
OD23.J.                                                :Optical Density, Channel 23 {F13.4}
OD3.J.                                                 :Optical Density, Channel 3 {F13.4}
OD4.J.                                                 :Optical Density, Channel 4 {F13.4}
OD5.J.                                                 :Optical Density, Channel 5 {F13.4}
OD6.J.                                                 :Optical Density, Channel 6 {F13.4}
OD7.J.                                                 :Optical Density, Channel 7 {F13.4}
OD8.J.                                                 :Optical Density, Channel 8 {F13.4}
OD9.J.                                                 :Optical Density, Channel 9 {F13.4}
OILF.J.                                                :Oil Fraction {F13.4}
REFRI.J.                                               :Refractive index, 1740 nm {F13.4}
WTRF.J.                                                :Water Fraction {F13.4}
#-----------------------------------------------------------------------------
#
#     TTIM        TIME         SEC          MIN          ESEC            EMIN            EHR             HHMMSS          BIT         DEPTH         WTBH         WRM          APGC         RTDC         ECLP         FPAD         RPAD        RCPERM       RCRES         APQL        ONESB        TENSB        DECSB        HNDSB         DPTL        RTDQL         PEXR         PRER         PSCR         PTVR         LMP          PEXB         PREB         PVTT         DDV          PVTV         PTV          BUQC        RTLQC        RTKQC        PLCOR         CPTV         TEN          CHT4         CHT          TTEN         TTIM       CMOSS.J      FLCH2.J      FLCH3.J      FLCH4.J      FLCH5.J      FLCH6.J       GASF.J        M1.J         M2.J        MUDF.J       NACL.J       OD1.J        OD10.J       OD11.J       OD12.J       OD13.J       OD14.J       OD15.J       OD16.J       OD17.J       OD18.J       OD19.J       OD2.J        OD20.J       OD21.J       OD22.J       OD23.J       OD3.J        OD4.J        OD5.J        OD6.J        OD7.J        OD8.J        OD9.J        OILF.J      REFRI.J       WTRF.J
#
~Ascii | Curve
# ...
      16.0   16000.0000      16.0000       0.2667         16          0          0     223950       8.5000    2853.5259     454.8964      42.3645     165.0000     212.1800    2860.0000       0.0000    2674.0000      78.0000       0.3214    1401.9053       1.9053       1.9053       0.9053       0.0053       0.1893     160.1438       0.0000       0.0000       4.0000    1999.9996      12.6923    1931.0000       0.0000     155.1200       0.0000       0.0000       0.0000       0.2242       0.1792       0.1792    1404.7616       0.0000     -10.3695   -2595.7700   -2595.7700    2703.1660      16.0000       0.8874    3702.8266    3138.2654    1603.7253    2031.3707    1244.0750       0.0000       3.7215       5.5820       1.0000 -999999.9999       3.4220       5.8169       5.2621       5.1623       4.3687       4.7721       4.8700       5.5834      10.0000       3.7215       5.5820       4.0431       4.3947       3.7314       0.8430       0.6170       5.9379       5.2128       5.0554       5.1072       6.4934       4.9049       5.3825       0.0000       4.9688       0.0000
      17.0   17000.0000      17.0000       0.2833         17          0          0     223951       8.5000    2853.5259     454.8964      42.2633     165.0000     212.5400    2869.0000       0.0000    2669.0000      78.0000       0.3186    1401.9130       1.9130       1.9130       0.9130       0.0129       0.1788     160.1470       0.0000       0.0000       4.0000    1999.9996      12.6944    1921.0000       0.0000     154.9400       0.0000       0.0000       0.0000       0.2162       0.1806       0.1806    1404.7693       0.0000     -28.4063   -2672.0857   -2672.0857    2684.9307      17.0000       0.8916    3758.6781    3204.7341    1578.4607    1962.3088    1169.9445       0.0000       3.7215       5.5820       1.0000 -999999.9999       3.4220       5.8169       5.2621       5.1623       4.3687       4.7721       4.8700       5.5834      10.0000       3.7215       5.5820       4.0431       4.3947       3.7314       0.8430       0.6170       5.9379       5.2128       5.0554       5.1072       6.4934       4.9049       5.3825       0.0000       5.0736       0.0000
      18.0   18000.0000      18.0000       0.3000         18          0          0     223952       8.5000    2853.5259     454.8964      42.3454     168.0000     212.9000    2860.0000       0.0000    2669.0000      78.0000       0.3176    1401.9111       1.9111       1.9111       0.9111       0.0111       0.1803     160.1499       0.0000       0.0000       4.0000    1999.9996      12.6940    1916.0000       0.0000     155.3000       0.0000       0.0000       0.0000       0.2061       0.1812       0.1812    1404.7675       0.0000     -31.8806   -2614.5171   -2614.5171    2681.1367      18.0000       0.8959    3814.5295    3271.2029    1553.1962    1893.2468    1095.8140       0.0000       3.7215       5.5820       1.0000 -999999.9999       3.4220       5.8169       5.2621       5.1623       4.3687       4.7721       4.8700       5.5834      10.0000       3.7215       5.5820       4.0431       4.3947       3.7314       0.8430       0.6170       5.9379       5.2128       5.0554       5.1072       6.4934       4.9049       5.3825       0.0000       5.1784       0.0000
      19.0   19000.0000      19.0000       0.3167         19          0          0     223953       8.5000    2853.5259     454.8964      42.2593     163.0000     212.1800    2864.0000       0.0000    2659.0000      78.0000       0.3183    1401.9189       1.9189       1.9189       0.9189       0.0189       0.1698     160.1529       0.0000       0.0000       4.0000    1999.9996      12.6920    1911.0000       0.0000     155.1200       0.0000       0.0000       0.0000       0.1982       0.1813       0.1813    1404.7753       0.0000     -37.5844   -2646.2458   -2646.2458    2675.0986      19.0000       0.8959    3745.4379    3228.2764    1558.7074    1866.2332    1067.5421       0.0000       3.8701       5.1219       1.0000 -999999.9999       3.6395       5.5898       5.1801       5.0849       4.4240       4.7181       4.9439       5.4831       8.5452       3.8701       5.1219       4.4916       4.7483       3.8461       0.7454       0.6172       5.9379       5.1090       5.0373       5.4036       5.9917       4.9656       5.2558       0.0000       5.1784       0.0000
      20.0   20000.0000      20.0000       0.3333         20          0          0     223954       8.5000    2853.5259     454.8964      42.3763     169.0000     212.7200    2855.0000       0.0000    2664.0000      78.0000       0.3191    1401.9221       1.9221       1.9221       0.9221       0.0221       0.1638     160.1560       0.0000       0.0000       4.0000    1999.9996      12.6930    1911.0000       0.0000     155.1200       0.0000       0.0000       0.0000       0.1968       0.1807       0.1807    1404.7784       0.0000     -27.6696   -2586.2407   -2586.2407    2684.7141      20.0000       0.8959    3676.3463    3185.3499    1564.2185    1839.2196    1039.2701       0.0000       4.0187       4.6618       1.0000 -999999.9999       3.8570       5.3627       5.0981       5.0076       4.4792       4.6642       5.0178       5.3827       7.0903       4.0187       4.6618       4.9402       5.1018       3.9608       0.6478       0.6173       5.9379       5.0053       5.0192       5.7000       5.4900       5.0262       5.1291       0.0000       5.1784       0.0000
      21.0   21000.0000      21.0000       0.3500         21          0          0     223955       8.5000    2853.5259     454.8964      42.1725     165.0000     212.7200    2869.0000       0.0000    2674.0000      78.0000       0.3189    1401.9246       1.9246       1.9246       0.9246       0.0245       0.1593     160.1589       0.0000       0.0000       4.0000    1999.9996      12.6956    1911.0000       0.0000     155.1200       0.0000       0.0000       0.0000       0.1951       0.1801       0.1801    1404.7809       0.0000     -30.9484   -2618.6760   -2618.6760    2681.1367      21.0000       0.8959    3607.2546    3142.4233    1569.7297    1812.2059    1010.9982       0.0000       4.1674       4.2018       1.0000 -999999.9999       4.0744       5.1356       5.0160       4.9302       4.5344       4.6102       5.0918       5.2824       5.6355       4.1674       4.2018       5.3888       5.4554       4.0754       0.5502       0.6175       5.9379       4.9015       5.0011       5.9964       4.9883       5.0868       5.0023       0.0000       5.1784       0.0000
      22.0   22000.0000      22.0000       0.3667         22          0          0     223956       8.5000    2853.5259     454.8964      42.3105     168.0000     213.0800    2845.0000       0.0000    2669.0000      78.0000       0.3178    1401.9274       1.9274       1.9274       0.9274       0.0273       0.1608     160.1619       0.0000       0.0000       4.0000    1999.9996      12.6906    1911.0000       0.0000     155.1200       0.0000       0.0000       0.0000       0.1877       0.1802       0.1802    1404.7837       0.0000     -23.3104   -2541.9512   -2541.9512    2688.4858      22.0000       0.9072    3667.8793    3101.7250    1536.9985    1854.9480    1015.5558       0.0000       4.6274       4.4025       1.0000 -999999.9999       3.9207       5.2485       5.3381       4.8402       4.9164       4.8141       5.0824       5.0292       5.2341       4.6274       4.4025       5.0877       5.1414       4.3025       0.3495       0.6175       5.4555       5.2453       4.8602       5.9377       5.4900       5.0466       5.2030       0.0000       5.5798       0.0000
      23.0   23000.0000      23.0000       0.3833         23          0          0     223957       8.5000    2853.5259     454.8964      42.2844     167.0000     213.2600    2860.0000       0.0000    2654.0000      78.0000       0.3198    1401.9261       1.9261       1.9261       0.9261       0.0261       0.1623     160.1648       0.0000       0.0000       4.0000    1999.9996      12.6907    1906.0000       0.0000     155.3000       0.0000       0.0000       0.0000       0.1857       0.1791       0.1791    1404.7825       0.0000     -43.7960   -2603.3477   -2603.3477    2667.7456      23.0000       0.9185    3728.5040    3061.0267    1504.2673    1897.6901    1020.1133       0.0000       5.0875       4.6031       1.0000 -999999.9999       3.7671       5.3615       5.6601       4.7502       5.2985       5.0181       5.0731       4.7759       4.8327       5.0875       4.6031       4.7867       4.8274       4.5296       0.1488       0.6174       4.9731       5.5891       4.7192       5.8790       5.9917       5.0064       5.4037       0.0000       5.9811       0.0000
