~VERSION INFORMATION
VERS.           3.0   :CWLS Log ASCII Standard - VERSION 3.0
WRAP.           NO    :One Line per depth step
DLM.          SPACE   :Column Data Section Delimiter Character
PROD.  Schlumberger   :LAS Producer
PROG.  DLIS to ASCII 2.3                               :LAS Program name and version
CREA.        2019/12/12 08:42                          :LAS Creation date {YYYY/MM/DD hh:mm}
DLIS_CREA.  2010-Jan-21 21:56                          :DLIS Creation date and time {YYYY-MMM-DD hh:mm}
SOURCE.     RCI_k800g35.dlis                           :DLIS File Name
FILE-ID.     BATLAS.001                                :File Identification Number
#--------------------------------------------------
~WELL INFORMATION
#MNEM.UNIT      DATA             DESCRIPTION
#---- ------ --------------   -----------------------------
STRT .S            0.0       :START TIME
STOP .S          228.0       :STOP DEPTH
STEP .S            1.0       :STEP
NULL .          -999.25      :NULL VALUE
COMP .        ECOPETROL                                :COMPANY
WELL .        HECHICERA-1                              :WELL
FLD  .        CANO SUR                                 :FIELD
LOC  .                                                 :LOCATION
CNTY .                                                 :COUNTY
STAT .                                                 :STATE
CTRY .                                                 :COUNTRY
API  .                                                 :API NUMBER
UWI  .                                                 :UNIQUE WELL ID
DATE .                                                 :LOG DATE
SRVC .        ATLAS                                    :SERVICE COMPANY
LATI .DEG                                              :LATITUDE
LONG .DEG                                              :LONGITUDE
GDAT .                                                 :GeoDetic Datum
#-----------------------------------------------------------------------------
~PARAMETER INFORMATION
#MNEM.UNIT    VALUE                      DESCRIPTION
#---- -----   --------------------       ------------------------
RUN  .                                   :RUN NUMBER
PDAT .                                   :Permanent Datum
EPD  .                                   :Elevation of Permanent Datum above Mean Sea Level
LMF  .                                   :Logging Measured From (Name of Logging Elevation Reference)
APD  .                                   :Elevation of Depth Reference (LMF) above Permanent Datum
#-----------------------------------------------------------------------------
~CURVE INFORMATION
#MNEM.UNIT   API CODE                                  DESCRIPTION
#---- -----  --------                                  -----------------------
TTIM .S                                                :TIME {F10.1}
TIME .MS                                               :system time since record start {F13.4}
SEC  .S                                                :time in seconds {F13.4}
MIN  .MN                                               :time in minutes {F13.4}
ESEC .S                                                :Remainder of sec curve since RECORD mode started in seconds. {I11}
EMIN .MN                                               :Remainder of sec since RECORD mode started in minutes {I11}
EHR  .HR                                               :Whole hours since RECORD mode started. {I11}
HHMMSS.                                                :hours, minutes, seconds {I11}
BIT  .IN                                               :bit size {F13.4}
DEPTH.F                                                :system depth {F13.4}
WTBH .DEGF                                             :temperature of the borehole {F13.4}
WRM  .OHMM                                             :mud resistivity {F13.4}
APGC .PSI                                              :1970CB hydraulic system pressure {F13.4}
RTDC .DEGF                                             :1970CA motor temperature {F13.4}
ECLP .PSI                                              :pressure emergency close reservoir {F13.4}
FPAD .PSI                                              :packer extend pressure {F13.4}
RPAD .PSI                                              :packer retract pressure {F13.4}
RCPERM.                                                :Dielectric constant of fluid in R/C sensor {F13.4}
RCRES.OHMM                                             :Resistivity of fluid in R/C sensor {F13.4}
APQL .PSI                                              :1970LB Quartzdyne gauge pressure {F13.4}
ONESB.PSI                                              :Pressure less than 10 {F13.4}
TENSB.PSI                                              :Pressure less than 100.0 {F13.4}
DECSB.PSI                                              :Pressure less than 1.0 {F13.4}
HNDSB.PSI                                              :Pressure less than 0.1 {F13.4}
DPTL .P/MN                                             :1970LB differential pressure {F13.4}
RTDQL.DEGF                                             :1970LA Quartzdyne pressure gauge temperature {F13.4}
PEXR .PSI                                              :1970RB Pump Extend Pressure {F13.4}
PRER .PSI                                              :1970RB Pump Retracted Pressure {F13.4}
PSCR .                                                 :1970RB Pump Strokes Count {F13.4}
PTVR .C3                                               :1970RB Pumped volume {F13.4}
LMP  .CM                                               :pump piston position {F13.4}
PEXB .PSI                                              :piston extend pressure {F13.4}
PREB .PSI                                              :piston retract pressure {F13.4}
PVTT .DEGF                                             :pump chamber temperature {F13.4}
DDV  .C3                                               :drawdown volume {F13.4}
PVTV .C3                                               :PVT volume {F13.4}
PTV  .C3                                               :pt_vol for rci {F13.4}
BUQC .P/MN                                             :build-up quality curve {F13.4}
RTLQC.                                                 :Delta rtdql/delta time {F13.4}
RTKQC.                                                 :Delta rtdqk/delta time {F13.4}
PLCOR.PSI                                              :apqk depth corrected {F13.4}
CPTV .C3                                               :Cumulative pump-through volume {F13.4}
TEN  .LBF                                              :differential tension {F13.4}
CHT4 .LBF                                              :cable head tension {F13.4}
CHT  .LBF                                              :cable head tension {F13.4}
TTEN .LBF                                              :total tension {F13.4}
TTIM .S                                                :  3.000000 s frame 1 time {F13.4}
CMOSS.J.                                               :Clausius-Mossotti Refractive Index {F13.4}
FLCH2.J.                                               :Flourescence channel 2 (475 nm) {F13.4}
FLCH3.J.                                               :Flourescence channel 3 (525 nm) {F13.4}
FLCH4.J.                                               :Flourescence channel 4 (575 nm) {F13.4}
FLCH5.J.                                               :Flourescence channel 5 (632 nm) {F13.4}
FLCH6.J.                                               :Flourescence channel 6 (694 nm) {F13.4}
GASF.J.                                                :Gas Fraction {F13.4}
M1.J .                                                 :1670 nanometer optical density {F13.4}
M2.J .                                                 :1682 nanometer optical density {F13.4}
MUDF.J.                                                :Mud Fraction {F13.4}
NACL.J.PPM                                             :NaCl Concentration {F13.4}
OD1.J.                                                 :Optical Density, Channel 1 {F13.4}
OD10.J.                                                :Optical Density, Channel 10 {F13.4}
OD11.J.                                                :Optical Density, Channel 11 {F13.4}
OD12.J.                                                :Optical Density, Channel 12 {F13.4}
OD13.J.                                                :Optical Density, Channel 13 {F13.4}
OD14.J.                                                :Optical Density, Channel 14 {F13.4}
OD15.J.                                                :Optical Density, Channel 15 {F13.4}
OD16.J.                                                :Optical Density, Channel 16 {F13.4}
OD17.J.                                                :Optical Density, Channel 17 {F13.4}
OD18.J.                                                :Optical Density, Channel 18 {F13.4}
OD19.J.                                                :Optical Density, Channel 19 {F13.4}
OD2.J.                                                 :Optical Density, Channel 2 {F13.4}
OD20.J.                                                :Optical Density, Channel 20 {F13.4}
OD21.J.                                                :Optical Density, Channel 21 {F13.4}
OD22.J.                                                :Optical Density, Channel 22 {F13.4}
OD23.J.                                                :Optical Density, Channel 23 {F13.4}
OD3.J.                                                 :Optical Density, Channel 3 {F13.4}
OD4.J.                                                 :Optical Density, Channel 4 {F13.4}
OD5.J.                                                 :Optical Density, Channel 5 {F13.4}
OD6.J.                                                 :Optical Density, Channel 6 {F13.4}
OD7.J.                                                 :Optical Density, Channel 7 {F13.4}
OD8.J.                                                 :Optical Density, Channel 8 {F13.4}
OD9.J.                                                 :Optical Density, Channel 9 {F13.4}
OILF.J.                                                :Oil Fraction {F13.4}
REFRI.J.                                               :Refractive index, 1740 nm {F13.4}
WTRF.J.                                                :Water Fraction {F13.4}
#-----------------------------------------------------------------------------
#
#     TTIM        TIME         SEC          MIN          ESEC            EMIN            EHR             HHMMSS          BIT         DEPTH         WTBH         WRM          APGC         RTDC         ECLP         FPAD         RPAD        RCPERM       RCRES         APQL        ONESB        TENSB        DECSB        HNDSB         DPTL        RTDQL         PEXR         PRER         PSCR         PTVR         LMP          PEXB         PREB         PVTT         DDV          PVTV         PTV          BUQC        RTLQC        RTKQC        PLCOR         CPTV         TEN          CHT4         CHT          TTEN         TTIM       CMOSS.J      FLCH2.J      FLCH3.J      FLCH4.J      FLCH5.J      FLCH6.J       GASF.J        M1.J         M2.J        MUDF.J       NACL.J       OD1.J        OD10.J       OD11.J       OD12.J       OD13.J       OD14.J       OD15.J       OD16.J       OD17.J       OD18.J       OD19.J       OD2.J        OD20.J       OD21.J       OD22.J       OD23.J       OD3.J        OD4.J        OD5.J        OD6.J        OD7.J        OD8.J        OD9.J        OILF.J      REFRI.J       WTRF.J
#
~Ascii | Curve
# ...
     168.0  168000.0000     168.0000       2.8001         48          2          0     224222       8.5000    2853.5259     454.8964      42.1247     154.0000     220.6400    2845.0000    2850.0000       0.0000      78.0000       0.3237    1404.4806       4.4806       4.4806       0.4806       0.0806       0.0721     160.5746      73.0000       0.0000       4.0000    1999.9996      12.6907    1867.0000       0.0000     155.4800       0.0000       0.0000       0.0000       0.2019       0.1621       0.1621    1407.3369       0.0000      18.4499   -2556.7146   -2556.7146    2710.5151     168.0000       0.8992    3045.4602    1882.4426    1668.9410    1948.2836    1217.2607       0.0000      10.0000       4.1507       1.0000 -999999.9999       4.2963       6.2149       5.1864       5.4896       4.4134       5.0594       4.7908       5.1064       4.1304      10.0000       4.1507       4.6972       5.2124       4.6106       0.3742       0.6150       5.1140       4.4859       5.1177       5.4225       4.9372       5.3709       5.6836       0.0000       5.2686       0.0000
     169.0  169000.0000     169.0000       2.8167         49          2          0     224223       8.5000    2853.5259     454.8964      42.2900     149.0000     220.8200    2840.0000    2835.0000       0.0000      78.0000       0.3235    1404.4750       4.4750       4.4750       0.4750       0.0750       2.4474     160.5774      73.0000       4.0000       4.0000    1999.9996      12.6863    1867.0000       0.0000     155.4800       0.0000       0.0000       0.0000       0.1262       0.1605       0.1605    1407.3313       0.0000      -7.0080   -2591.7529   -2591.7529    2685.1475     169.0000       0.8992    3026.8675    1801.4717    1712.4897    2001.2936    1208.9375       0.0000       8.2565       4.0902       1.0000 -999999.9999       4.2362       6.0822       5.1984       5.4895       4.5025       4.9342       4.8495       5.0060       4.1847       8.2565       4.0902       4.5721       5.0604       4.5742       0.6363       0.6152       5.0416       4.7089       5.3300       5.3545       5.1549       5.2405       5.7576       0.0000       5.2686       0.0000
     170.0  170000.0000     170.0000       2.8334         50          2          0     224224       8.5000    2853.5259     454.8964      42.2304     160.0000     220.8200    2840.0000    2845.0000       0.0000      78.0000       0.3226    1404.4812       4.4812       4.4812       0.4812       0.0812       5.1878     160.5801      78.0000       0.0000       4.0000    1999.9996      12.6911    1877.0000       0.0000     155.4800       0.0000       0.0000       0.0000       0.0591       0.1602       0.1602    1407.3375       0.0000     -19.3250   -2629.4512   -2629.4512    2672.6929     170.0000       0.8992    3008.2748    1720.5007    1756.0384    2054.3037    1200.6142       0.0000       6.5130       4.0298       1.0000 -999999.9999       4.1761       5.9496       5.2105       5.4895       4.5916       4.8090       4.9082       4.9057       4.2389       6.5130       4.0298       4.4470       4.9085       4.5379       0.8984       0.6153       4.9691       4.9319       5.5422       5.2864       5.3727       5.1101       5.8316       0.0000       5.2686       0.0000
     171.0  171000.0000     171.0000       2.8501         51          2          0     224225       8.5000    2853.5259     454.8964      42.3161     163.0000     220.6400    2835.0000    2850.0000       0.0000      78.0000       0.3262    1404.4908       4.4908       4.4908       0.4908       0.0908       7.9056     160.5830      83.0000       0.0000       4.0000    1999.9996      12.6911    1872.0000       0.0000     154.9400       0.0000       0.0000       0.0000       0.0321       0.1599       0.1599    1407.3472       0.0000     -12.0043   -2600.7168   -2600.7168    2679.8257     171.0000       0.8992    2989.6821    1639.5298    1799.5870    2107.3137    1192.2909       0.0000       4.7695       3.9693       1.0000 -999999.9999       4.1159       5.8169       5.2225       5.4895       4.6807       4.6837       4.9669       4.8054       4.2932       4.7695       3.9693       4.3219       4.7565       4.5015       1.1605       0.6154       4.8966       5.1549       5.7545       5.2184       5.5904       4.9797       5.9055       0.0000       5.2686       0.0000
     172.0  172000.0000     172.0000       2.8667         52          2          0     224226       8.5000    2853.5259     454.8964      42.2347     162.0000     221.3600    2850.0000    2850.0000       0.0000      78.0000       0.3269    1404.4977       4.4977       4.4977       0.4977       0.0977      10.5829     160.5855      83.0000       0.0000       4.0000    1999.9996      12.6886    1872.0000       0.0000     155.3000       0.0000       0.0000       0.0000       0.0394       0.1609       0.1609    1407.3540       0.0000     -10.5843   -2575.2742   -2575.2742    2681.1367     172.0000       0.8974    3046.6860    1613.7165    1814.5979    2105.2222    1172.0785       0.0000       4.5142       4.2252       1.0000 -999999.9999       4.0895       5.8492       5.1660       5.2981       4.7810       4.8283       4.8630       5.0647       4.2867       4.5142       4.2252       4.8043       4.8081       4.3788       0.7685       0.6154       4.7836       5.0222       5.4476       5.2125       5.5904       5.1101       5.5379       0.0000       5.2215       0.0000
     173.0  173000.0000     173.0000       2.8834         53          2          0     224227       8.5000    2853.5259     454.8964      42.2079     163.0000     220.6400    2850.0000    2845.0000       0.0000      78.0000       0.3244    1404.4973       4.4973       4.4973       0.4973       0.0973      13.1400     160.5881      78.0000       0.0000       4.0000    1999.9996      12.6940    1872.0000       0.0000     155.8400       0.0000       0.0000       0.0000       0.0574       0.1607       0.1607    1407.3536       0.0000       3.4683   -2611.2263   -2611.2263    2695.1409     173.0000       0.8957    3103.6898    1587.9032    1829.6087    2103.1306    1151.8660       0.0000       4.2589       4.4811       1.0000 -999999.9999       4.0631       5.8815       5.1094       5.1068       4.8814       4.9728       4.7591       5.3241       4.2803       4.2589       4.4811       5.2867       4.8598       4.2561       0.3764       0.6154       4.6707       4.8896       5.1406       5.2066       5.5904       5.2405       5.1704       0.0000       5.1744       0.0000
     174.0  174000.0000     174.0000       2.9001         54          2          0     224228       8.5000    2853.5259     454.8964      42.3606     167.0000     220.8200    2845.0000    2855.0000       0.0000      78.0000       0.3225    1404.4872       4.4872       4.4872       0.4872       0.0872      13.2151     160.5908      83.0000       0.0000       4.0000    1999.9996      12.6926    1867.0000       0.0000     155.4800       0.0000       0.0000       0.0000       0.0700       0.1605       0.1605    1407.3435       0.0000      -4.3634   -2578.9761   -2578.9761    2687.1748     174.0000       0.8940    3160.6936    1562.0900    1844.6195    2101.0391    1131.6536       0.0000       4.0036       4.7370       1.0000 -999999.9999       4.0367       5.9138       5.0528       4.9154       4.9817       5.1174       4.6551       5.5835       4.2739       4.0036       4.7370       5.7691       4.9114       4.1335      -0.0156       0.6153       4.5577       4.7569       4.8337       5.2006       5.5904       5.3709       4.8028       0.0000       5.1273       0.0000
     175.0  175000.0000     175.0000       2.9167         55          2          0     224229       8.5000    2853.5259     454.8964      42.2304     164.0000     221.7200    2840.0000    2850.0000       0.0000      78.0000       0.3237    1404.4226       4.4226       4.4226       0.4226       0.0226      12.9913     160.5936      73.0000       0.0000       4.0000    1999.9996      12.6901    1877.0000       0.0000     155.4800       0.0000       0.0000       0.0000       0.0033       0.1613       0.1613    1407.2789       0.0000     -10.1665   -2644.3762   -2644.3762    2681.3535     175.0000       0.8981    3248.2189    1567.6171    1867.1514    2040.7609    1130.1111       0.0000       4.0036       4.7370       1.0000 -999999.9999       4.0367       5.9138       5.0528       4.9154       4.9817       5.1174       4.6551       5.5835       4.2739       4.0036       4.7370       5.7691       4.9114       4.1335      -0.0156       0.6153       4.5577       4.7569       4.8337       5.2006       5.5904       5.3709       4.8028       0.0000       5.2447       0.0000
