~VERSION INFORMATION
VERS.           3.0   :CWLS Log ASCII Standard - VERSION 3.0
WRAP.           NO    :One Line per depth step
DLM.          SPACE   :Column Data Section Delimiter Character
PROD.  Schlumberger   :LAS Producer
PROG.  DLIS to ASCII 2.3                               :LAS Program name and version
CREA.        2019/12/12 08:42                          :LAS Creation date {YYYY/MM/DD hh:mm}
DLIS_CREA.  2010-Jan-21 21:56                          :DLIS Creation date and time {YYYY-MMM-DD hh:mm}
SOURCE.     RCI_k800g35.dlis                           :DLIS File Name
FILE-ID.     BATLAS.001                                :File Identification Number
#--------------------------------------------------
~WELL INFORMATION
#MNEM.UNIT      DATA             DESCRIPTION
#---- ------ --------------   -----------------------------
STRT .S            0.0       :START TIME
STOP .S          228.0       :STOP DEPTH
STEP .S            1.0       :STEP
NULL .          -999.25      :NULL VALUE
COMP .        ECOPETROL                                :COMPANY
WELL .        HECHICERA-1                              :WELL
FLD  .        CANO SUR                                 :FIELD
LOC  .                                                 :LOCATION
CNTY .                                                 :COUNTY
STAT .                                                 :STATE
CTRY .                                                 :COUNTRY
API  .                                                 :API NUMBER
UWI  .                                                 :UNIQUE WELL ID
DATE .                                                 :LOG DATE
SRVC .        ATLAS                                    :SERVICE COMPANY
LATI .DEG                                              :LATITUDE
LONG .DEG                                              :LONGITUDE
GDAT .                                                 :GeoDetic Datum
#-----------------------------------------------------------------------------
~PARAMETER INFORMATION
#MNEM.UNIT    VALUE                      DESCRIPTION
#---- -----   --------------------       ------------------------
RUN  .                                   :RUN NUMBER
PDAT .                                   :Permanent Datum
EPD  .                                   :Elevation of Permanent Datum above Mean Sea Level
LMF  .                                   :Logging Measured From (Name of Logging Elevation Reference)
APD  .                                   :Elevation of Depth Reference (LMF) above Permanent Datum
#-----------------------------------------------------------------------------
~CURVE INFORMATION
#MNEM.UNIT   API CODE                                  DESCRIPTION
#---- -----  --------                                  -----------------------
TTIM .S                                                :TIME {F10.1}
TIME .MS                                               :system time since record start {F13.4}
SEC  .S                                                :time in seconds {F13.4}
MIN  .MN                                               :time in minutes {F13.4}
ESEC .S                                                :Remainder of sec curve since RECORD mode started in seconds. {I11}
EMIN .MN                                               :Remainder of sec since RECORD mode started in minutes {I11}
EHR  .HR                                               :Whole hours since RECORD mode started. {I11}
HHMMSS.                                                :hours, minutes, seconds {I11}
BIT  .IN                                               :bit size {F13.4}
DEPTH.F                                                :system depth {F13.4}
WTBH .DEGF                                             :temperature of the borehole {F13.4}
WRM  .OHMM                                             :mud resistivity {F13.4}
APGC .PSI                                              :1970CB hydraulic system pressure {F13.4}
RTDC .DEGF                                             :1970CA motor temperature {F13.4}
ECLP .PSI                                              :pressure emergency close reservoir {F13.4}
FPAD .PSI                                              :packer extend pressure {F13.4}
RPAD .PSI                                              :packer retract pressure {F13.4}
RCPERM.                                                :Dielectric constant of fluid in R/C sensor {F13.4}
RCRES.OHMM                                             :Resistivity of fluid in R/C sensor {F13.4}
APQL .PSI                                              :1970LB Quartzdyne gauge pressure {F13.4}
ONESB.PSI                                              :Pressure less than 10 {F13.4}
TENSB.PSI                                              :Pressure less than 100.0 {F13.4}
DECSB.PSI                                              :Pressure less than 1.0 {F13.4}
HNDSB.PSI                                              :Pressure less than 0.1 {F13.4}
DPTL .P/MN                                             :1970LB differential pressure {F13.4}
RTDQL.DEGF                                             :1970LA Quartzdyne pressure gauge temperature {F13.4}
PEXR .PSI                                              :1970RB Pump Extend Pressure {F13.4}
PRER .PSI                                              :1970RB Pump Retracted Pressure {F13.4}
PSCR .                                                 :1970RB Pump Strokes Count {F13.4}
PTVR .C3                                               :1970RB Pumped volume {F13.4}
LMP  .CM                                               :pump piston position {F13.4}
PEXB .PSI                                              :piston extend pressure {F13.4}
PREB .PSI                                              :piston retract pressure {F13.4}
PVTT .DEGF                                             :pump chamber temperature {F13.4}
DDV  .C3                                               :drawdown volume {F13.4}
PVTV .C3                                               :PVT volume {F13.4}
PTV  .C3                                               :pt_vol for rci {F13.4}
BUQC .P/MN                                             :build-up quality curve {F13.4}
RTLQC.                                                 :Delta rtdql/delta time {F13.4}
RTKQC.                                                 :Delta rtdqk/delta time {F13.4}
PLCOR.PSI                                              :apqk depth corrected {F13.4}
CPTV .C3                                               :Cumulative pump-through volume {F13.4}
TEN  .LBF                                              :differential tension {F13.4}
CHT4 .LBF                                              :cable head tension {F13.4}
CHT  .LBF                                              :cable head tension {F13.4}
TTEN .LBF                                              :total tension {F13.4}
TTIM .S                                                :  3.000000 s frame 1 time {F13.4}
CMOSS.J.                                               :Clausius-Mossotti Refractive Index {F13.4}
FLCH2.J.                                               :Flourescence channel 2 (475 nm) {F13.4}
FLCH3.J.                                               :Flourescence channel 3 (525 nm) {F13.4}
FLCH4.J.                                               :Flourescence channel 4 (575 nm) {F13.4}
FLCH5.J.                                               :Flourescence channel 5 (632 nm) {F13.4}
FLCH6.J.                                               :Flourescence channel 6 (694 nm) {F13.4}
GASF.J.                                                :Gas Fraction {F13.4}
M1.J .                                                 :1670 nanometer optical density {F13.4}
M2.J .                                                 :1682 nanometer optical density {F13.4}
MUDF.J.                                                :Mud Fraction {F13.4}
NACL.J.PPM                                             :NaCl Concentration {F13.4}
OD1.J.                                                 :Optical Density, Channel 1 {F13.4}
OD10.J.                                                :Optical Density, Channel 10 {F13.4}
OD11.J.                                                :Optical Density, Channel 11 {F13.4}
OD12.J.                                                :Optical Density, Channel 12 {F13.4}
OD13.J.                                                :Optical Density, Channel 13 {F13.4}
OD14.J.                                                :Optical Density, Channel 14 {F13.4}
OD15.J.                                                :Optical Density, Channel 15 {F13.4}
OD16.J.                                                :Optical Density, Channel 16 {F13.4}
OD17.J.                                                :Optical Density, Channel 17 {F13.4}
OD18.J.                                                :Optical Density, Channel 18 {F13.4}
OD19.J.                                                :Optical Density, Channel 19 {F13.4}
OD2.J.                                                 :Optical Density, Channel 2 {F13.4}
OD20.J.                                                :Optical Density, Channel 20 {F13.4}
OD21.J.                                                :Optical Density, Channel 21 {F13.4}
OD22.J.                                                :Optical Density, Channel 22 {F13.4}
OD23.J.                                                :Optical Density, Channel 23 {F13.4}
OD3.J.                                                 :Optical Density, Channel 3 {F13.4}
OD4.J.                                                 :Optical Density, Channel 4 {F13.4}
OD5.J.                                                 :Optical Density, Channel 5 {F13.4}
OD6.J.                                                 :Optical Density, Channel 6 {F13.4}
OD7.J.                                                 :Optical Density, Channel 7 {F13.4}
OD8.J.                                                 :Optical Density, Channel 8 {F13.4}
OD9.J.                                                 :Optical Density, Channel 9 {F13.4}
OILF.J.                                                :Oil Fraction {F13.4}
REFRI.J.                                               :Refractive index, 1740 nm {F13.4}
WTRF.J.                                                :Water Fraction {F13.4}
#-----------------------------------------------------------------------------
#
#     TTIM        TIME         SEC          MIN          ESEC            EMIN            EHR             HHMMSS          BIT         DEPTH         WTBH         WRM          APGC         RTDC         ECLP         FPAD         RPAD        RCPERM       RCRES         APQL        ONESB        TENSB        DECSB        HNDSB         DPTL        RTDQL         PEXR         PRER         PSCR         PTVR         LMP          PEXB         PREB         PVTT         DDV          PVTV         PTV          BUQC        RTLQC        RTKQC        PLCOR         CPTV         TEN          CHT4         CHT          TTEN         TTIM       CMOSS.J      FLCH2.J      FLCH3.J      FLCH4.J      FLCH5.J      FLCH6.J       GASF.J        M1.J         M2.J        MUDF.J       NACL.J       OD1.J        OD10.J       OD11.J       OD12.J       OD13.J       OD14.J       OD15.J       OD16.J       OD17.J       OD18.J       OD19.J       OD2.J        OD20.J       OD21.J       OD22.J       OD23.J       OD3.J        OD4.J        OD5.J        OD6.J        OD7.J        OD8.J        OD9.J        OILF.J      REFRI.J       WTRF.J
#
~Ascii | Curve
# ...
      72.0   72000.0000      72.0000       1.2000         12          1          0     224046       8.5000    2853.5259     454.8964      42.1707     167.0000     213.6200    2825.0000    2620.0000       0.0000      78.0000       0.3206    1403.4445       3.4445       3.4445       0.4445       0.0444       2.4895     160.3075      97.0000      24.0000       4.0000    1999.9996      12.6922    1882.0000       0.0000     154.5800       0.0000       0.0000       0.0000      -5.9731       0.1737       0.1737    1406.3008       0.0000     -16.2736   -2642.7910   -2642.7910    2685.1475      72.0000       0.8883    2351.9587    2254.7141    2354.0320    2152.4565    1266.4655       0.0000       4.5934       4.0907       1.0000 -999999.9999       3.7144       6.5159       5.4083       5.3136       4.2656       4.8321       5.1540       4.1943       4.1442       4.5934       4.0907       4.8660       4.6262       4.4557      -0.1983       0.6169       5.1598       4.6266       5.5326       5.4525       6.0164      10.0000       5.1273       0.0000       4.9846       0.0000
      73.0   73000.0000      73.0000       1.2167         13          1          0     224047       8.5000    2853.5259     454.8964      42.2600     164.0000     214.5200    2835.0000    2610.0000       0.0000      78.0000       0.3206    1403.5088       3.5088       3.5088       0.5088       0.0088       2.5270     160.3103      97.0000      19.0000       4.0000    1999.9996      12.6910    1877.0000       0.0000     155.3000       0.0000       0.0000       0.0000      -8.8175       0.1736       0.1736    1406.3651       0.0000      -5.3591   -2660.7263   -2660.7263    2696.0554      73.0000       0.8883    2224.4372    2228.6457    2339.5245    2232.7257    1252.7668       0.0000       4.6105       4.0907       1.0000 -999999.9999       3.5347       6.0142       5.7000       5.3400       4.3901       4.7401       5.1240       4.2516       4.1642       4.6105       4.0907       4.8280       4.9443       4.2257       0.1488       0.6169       4.9611       4.6231       5.2114       5.4331       5.6006       8.2355       5.1537       0.0000       4.9846       0.0000
      74.0   74000.0000      74.0000       1.2334         14          1          0     224048       8.5000    2853.5259     454.8964      42.3964     165.0000     213.6200    2816.0000    2600.0000       0.0000      78.0000       0.3219    1403.5531       3.5531       3.5531       0.5531       0.0531       2.5210     160.3129      97.0000      29.0000       4.0000    1999.9996      12.6912    1882.0000       0.0000     155.3000       0.0000       0.0000       0.0000      -9.1020       0.1721       0.1721    1406.4094       0.0000     -20.0836   -2629.9402   -2629.9402    2681.1367      74.0000       0.8883    2096.9157    2202.5772    2325.0170    2312.9948    1239.0682       0.0000       4.6275       4.0907       1.0000 -999999.9999       3.3550       5.5125       5.9917       5.3664       4.5146       4.6480       5.0939       4.3088       4.1842       4.6275       4.0907       4.7900       5.2623       3.9956       0.4959       0.6168       4.7625       4.6195       4.8901       5.4138       5.1849       6.4711       5.1801       0.0000       4.9846       0.0000
      75.0   75000.0000      75.0000       1.2500         15          1          0     224049       8.5000    2853.5259     454.8964      42.3158     165.0000     213.8000    2830.0000    2596.0000       0.0000      78.0000       0.3226    1403.6082       3.6082       3.6082       0.6082       0.0081       2.4820     160.3159      88.0000      19.0000       4.0000    1999.9996      12.6932    1862.0000       0.0000     155.1200       0.0000       0.0000       0.0000      -1.4412       0.1705       0.1705    1406.4645       0.0000     -19.8869   -2580.2817   -2580.2817    2681.1367      75.0000       0.8883    1969.3942    2176.5088    2310.5095    2393.2639    1225.3695       0.0000       4.6446       4.0907       1.0000 -999999.9999       3.1753       5.0108       6.2834       5.3928       4.6392       4.5559       5.0638       4.3660       4.2042       4.6446       4.0907       4.7520       5.5804       3.7655       0.8431       0.6167       4.5638       4.6160       4.5689       5.3945       4.7692       4.7066       5.2065       0.0000       4.9846       0.0000
      76.0   76000.0000      76.0000       1.2667         16          1          0     224050       8.5000    2853.5259     454.8964      42.3285     164.0000     214.5200    2835.0000    2591.0000       0.0000      78.0000       0.3206    1403.6470       3.6470       3.6470       0.6470       0.0470       2.4129     160.3188      97.0000      24.0000       4.0000    1999.9996      12.6910    1887.0000       0.0000     155.1200       0.0000       0.0000       0.0000       1.9820       0.1702       0.1702    1406.5033       0.0000     -19.4729   -2628.9326   -2628.9326    2681.3535      76.0000       0.8949    2230.4300    2193.4537    2262.8167    2411.2900    1209.5393       0.0000       4.5985       4.0907       1.0000 -999999.9999       3.3814       5.1023       6.2834       5.2924       4.5563       5.0248       5.1642       4.5388       4.1121       4.5985       4.0907       4.6933       5.1760       3.8272       0.5027       0.6169       4.8628       4.7633       4.8221       5.4625       4.8422       4.9983       5.2805       0.0000       5.1689       0.0000
      77.0   77000.0000      77.0000       1.2834         17          1          0     224051       8.5000    2853.5259     454.8964      42.2121     164.0000     213.9800    2825.0000    2596.0000       0.0000      78.0000       0.3197    1403.6826       3.6826       3.6826       0.6826       0.0826       2.3332     160.3215      97.0000      14.0000       4.0000    1999.9996      12.6929    1877.0000       0.0000     155.1200       0.0000       0.0000       0.0000       2.6466       0.1688       0.1688    1406.5389       0.0000       7.0865   -2617.9358   -2617.9358    2707.8926      77.0000       0.9015    2491.4659    2210.3986    2215.1239    2429.3160    1193.7090       0.0000       4.5524       4.0907       1.0000 -999999.9999       3.5875       5.1939       6.2833       5.1921       4.4734       5.4936       5.2645       4.7117       4.0200       4.5524       4.0907       4.6346       4.7717       3.8889       0.1623       0.6171       5.1618       4.9106       5.0753       5.5305       4.9153       5.2900       5.3544       0.0000       5.3532       0.0000
      78.0   78000.0000      78.0000       1.3000         18          1          0     224052       8.5000    2853.5259     454.8964      42.2663     167.0000     214.1600    2820.0000    2596.0000       0.0000      78.0000       0.3197    1403.7058       3.7058       3.7058       0.7058       0.0058       2.2296     160.3244      92.0000      19.0000       4.0000    1999.9996      12.6900    1877.0000       0.0000     155.6600       0.0000       0.0000       0.0000       2.8235       0.1685       0.1685    1406.5621       0.0000      -5.9567   -2662.9832   -2662.9832    2694.7441      78.0000       0.9082    2752.5017    2227.3435    2167.4312    2447.3420    1177.8788       0.0000       4.5063       4.0907       1.0000 -999999.9999       3.7936       5.2854       6.2833       5.0917       4.3905       5.9625       5.3649       4.8845       3.9280       4.5063       4.0907       4.5759       4.3673       3.9506      -0.1781       0.6173       5.4608       5.0579       5.3285       5.5986       4.9883       5.5817       5.4283       0.0000       5.5375       0.0000
      79.0   79000.0000      79.0000       1.3167         19          1          0     224053       8.5000    2853.5259     454.8964      42.3535     163.0000     214.1600    2830.0000    2591.0000       0.0000      78.0000       0.3232    1403.7258       3.7258       3.7258       0.7258       0.0258       2.0838     160.3273      97.0000      24.0000       4.0000    1999.9996      12.6910    1882.0000       0.0000     154.9400       0.0000       0.0000       0.0000       2.8201       0.1690       0.1690    1406.5822       0.0000     -19.2140   -2664.7573   -2664.7573    2681.3535      79.0000       0.9070    2960.6376    2248.4965    2114.4911    2501.8092    1162.8124       0.0000       4.5063       4.0907       1.0000 -999999.9999       3.7936       5.2854       6.2833       5.0917       4.3905       5.9625       5.3649       4.8845       3.9280       4.5063       4.0907       4.5759       4.3673       3.9506      -0.1781       0.6173       5.4608       5.0579       5.3285       5.5986       4.9883       5.5817       5.4283       0.0000       5.5011       0.0000
