~VERSION INFORMATION
VERS.           3.0   :CWLS Log ASCII Standard - VERSION 3.0
WRAP.           NO    :One Line per depth step
DLM.          SPACE   :Column Data Section Delimiter Character
PROD.  Schlumberger   :LAS Producer
PROG.  DLIS to ASCII 2.3                               :LAS Program name and version
CREA.        2019/12/12 08:42                          :LAS Creation date {YYYY/MM/DD hh:mm}
DLIS_CREA.  2010-Jan-21 21:56                          :DLIS Creation date and time {YYYY-MMM-DD hh:mm}
SOURCE.     RCI_k800g35.dlis                           :DLIS File Name
FILE-ID.     BATLAS.001                                :File Identification Number
#--------------------------------------------------
~WELL INFORMATION
#MNEM.UNIT      DATA             DESCRIPTION
#---- ------ --------------   -----------------------------
STRT .S            0.0       :START TIME
STOP .S          228.0       :STOP DEPTH
STEP .S            1.0       :STEP
NULL .          -999.25      :NULL VALUE
COMP .        ECOPETROL                                :COMPANY
WELL .        HECHICERA-1                              :WELL
FLD  .        CANO SUR                                 :FIELD
LOC  .                                                 :LOCATION
CNTY .                                                 :COUNTY
STAT .                                                 :STATE
CTRY .                                                 :COUNTRY
API  .                                                 :API NUMBER
UWI  .                                                 :UNIQUE WELL ID
DATE .                                                 :LOG DATE
SRVC .        ATLAS                                    :SERVICE COMPANY
LATI .DEG                                              :LATITUDE
LONG .DEG                                              :LONGITUDE
GDAT .                                                 :GeoDetic Datum
#-----------------------------------------------------------------------------
~PARAMETER INFORMATION
#MNEM.UNIT    VALUE                      DESCRIPTION
#---- -----   --------------------       ------------------------
RUN  .                                   :RUN NUMBER
PDAT .                                   :Permanent Datum
EPD  .                                   :Elevation of Permanent Datum above Mean Sea Level
LMF  .                                   :Logging Measured From (Name of Logging Elevation Reference)
APD  .                                   :Elevation of Depth Reference (LMF) above Permanent Datum
#-----------------------------------------------------------------------------
~CURVE INFORMATION
#MNEM.UNIT   API CODE                                  DESCRIPTION
#---- -----  --------                                  -----------------------
TTIM .S                                                :TIME {F10.1}
TIME .MS                                               :system time since record start {F13.4}
SEC  .S                                                :time in seconds {F13.4}
MIN  .MN                                               :time in minutes {F13.4}
ESEC .S                                                :Remainder of sec curve since RECORD mode started in seconds. {I11}
EMIN .MN                                               :Remainder of sec since RECORD mode started in minutes {I11}
EHR  .HR                                               :Whole hours since RECORD mode started. {I11}
HHMMSS.                                                :hours, minutes, seconds {I11}
BIT  .IN                                               :bit size {F13.4}
DEPTH.F                                                :system depth {F13.4}
WTBH .DEGF                                             :temperature of the borehole {F13.4}
WRM  .OHMM                                             :mud resistivity {F13.4}
APGC .PSI                                              :1970CB hydraulic system pressure {F13.4}
RTDC .DEGF                                             :1970CA motor temperature {F13.4}
ECLP .PSI                                              :pressure emergency close reservoir {F13.4}
FPAD .PSI                                              :packer extend pressure {F13.4}
RPAD .PSI                                              :packer retract pressure {F13.4}
RCPERM.                                                :Dielectric constant of fluid in R/C sensor {F13.4}
RCRES.OHMM                                             :Resistivity of fluid in R/C sensor {F13.4}
APQL .PSI                                              :1970LB Quartzdyne gauge pressure {F13.4}
ONESB.PSI                                              :Pressure less than 10 {F13.4}
TENSB.PSI                                              :Pressure less than 100.0 {F13.4}
DECSB.PSI                                              :Pressure less than 1.0 {F13.4}
HNDSB.PSI                                              :Pressure less than 0.1 {F13.4}
DPTL .P/MN                                             :1970LB differential pressure {F13.4}
RTDQL.DEGF                                             :1970LA Quartzdyne pressure gauge temperature {F13.4}
PEXR .PSI                                              :1970RB Pump Extend Pressure {F13.4}
PRER .PSI                                              :1970RB Pump Retracted Pressure {F13.4}
PSCR .                                                 :1970RB Pump Strokes Count {F13.4}
PTVR .C3                                               :1970RB Pumped volume {F13.4}
LMP  .CM                                               :pump piston position {F13.4}
PEXB .PSI                                              :piston extend pressure {F13.4}
PREB .PSI                                              :piston retract pressure {F13.4}
PVTT .DEGF                                             :pump chamber temperature {F13.4}
DDV  .C3                                               :drawdown volume {F13.4}
PVTV .C3                                               :PVT volume {F13.4}
PTV  .C3                                               :pt_vol for rci {F13.4}
BUQC .P/MN                                             :build-up quality curve {F13.4}
RTLQC.                                                 :Delta rtdql/delta time {F13.4}
RTKQC.                                                 :Delta rtdqk/delta time {F13.4}
PLCOR.PSI                                              :apqk depth corrected {F13.4}
CPTV .C3                                               :Cumulative pump-through volume {F13.4}
TEN  .LBF                                              :differential tension {F13.4}
CHT4 .LBF                                              :cable head tension {F13.4}
CHT  .LBF                                              :cable head tension {F13.4}
TTEN .LBF                                              :total tension {F13.4}
TTIM .S                                                :  3.000000 s frame 1 time {F13.4}
CMOSS.J.                                               :Clausius-Mossotti Refractive Index {F13.4}
FLCH2.J.                                               :Flourescence channel 2 (475 nm) {F13.4}
FLCH3.J.                                               :Flourescence channel 3 (525 nm) {F13.4}
FLCH4.J.                                               :Flourescence channel 4 (575 nm) {F13.4}
FLCH5.J.                                               :Flourescence channel 5 (632 nm) {F13.4}
FLCH6.J.                                               :Flourescence channel 6 (694 nm) {F13.4}
GASF.J.                                                :Gas Fraction {F13.4}
M1.J .                                                 :1670 nanometer optical density {F13.4}
M2.J .                                                 :1682 nanometer optical density {F13.4}
MUDF.J.                                                :Mud Fraction {F13.4}
NACL.J.PPM                                             :NaCl Concentration {F13.4}
OD1.J.                                                 :Optical Density, Channel 1 {F13.4}
OD10.J.                                                :Optical Density, Channel 10 {F13.4}
OD11.J.                                                :Optical Density, Channel 11 {F13.4}
OD12.J.                                                :Optical Density, Channel 12 {F13.4}
OD13.J.                                                :Optical Density, Channel 13 {F13.4}
OD14.J.                                                :Optical Density, Channel 14 {F13.4}
OD15.J.                                                :Optical Density, Channel 15 {F13.4}
OD16.J.                                                :Optical Density, Channel 16 {F13.4}
OD17.J.                                                :Optical Density, Channel 17 {F13.4}
OD18.J.                                                :Optical Density, Channel 18 {F13.4}
OD19.J.                                                :Optical Density, Channel 19 {F13.4}
OD2.J.                                                 :Optical Density, Channel 2 {F13.4}
OD20.J.                                                :Optical Density, Channel 20 {F13.4}
OD21.J.                                                :Optical Density, Channel 21 {F13.4}
OD22.J.                                                :Optical Density, Channel 22 {F13.4}
OD23.J.                                                :Optical Density, Channel 23 {F13.4}
OD3.J.                                                 :Optical Density, Channel 3 {F13.4}
OD4.J.                                                 :Optical Density, Channel 4 {F13.4}
OD5.J.                                                 :Optical Density, Channel 5 {F13.4}
OD6.J.                                                 :Optical Density, Channel 6 {F13.4}
OD7.J.                                                 :Optical Density, Channel 7 {F13.4}
OD8.J.                                                 :Optical Density, Channel 8 {F13.4}
OD9.J.                                                 :Optical Density, Channel 9 {F13.4}
OILF.J.                                                :Oil Fraction {F13.4}
REFRI.J.                                               :Refractive index, 1740 nm {F13.4}
WTRF.J.                                                :Water Fraction {F13.4}
#-----------------------------------------------------------------------------
#
#     TTIM        TIME         SEC          MIN          ESEC            EMIN            EHR             HHMMSS          BIT         DEPTH         WTBH         WRM          APGC         RTDC         ECLP         FPAD         RPAD        RCPERM       RCRES         APQL        ONESB        TENSB        DECSB        HNDSB         DPTL        RTDQL         PEXR         PRER         PSCR         PTVR         LMP          PEXB         PREB         PVTT         DDV          PVTV         PTV          BUQC        RTLQC        RTKQC        PLCOR         CPTV         TEN          CHT4         CHT          TTEN         TTIM       CMOSS.J      FLCH2.J      FLCH3.J      FLCH4.J      FLCH5.J      FLCH6.J       GASF.J        M1.J         M2.J        MUDF.J       NACL.J       OD1.J        OD10.J       OD11.J       OD12.J       OD13.J       OD14.J       OD15.J       OD16.J       OD17.J       OD18.J       OD19.J       OD2.J        OD20.J       OD21.J       OD22.J       OD23.J       OD3.J        OD4.J        OD5.J        OD6.J        OD7.J        OD8.J        OD9.J        OILF.J      REFRI.J       WTRF.J
#
~Ascii | Curve
# ...
      88.0   88000.0000      88.0000       1.4667         28          1          0     224102       8.5000    2853.5259     454.8964      42.2597     162.0000     215.2400    2840.0000    2571.0000       0.0000      78.0000       0.3220    1403.9741       3.9741       3.9741       0.9741       0.0741       0.4958     160.3523      92.0000      14.0000       4.0000    1999.9996      12.6916    1882.0000       0.0000     155.1200       0.0000       0.0000       0.0000       1.7982       0.1686       0.1686    1406.8304       0.0000     -31.2669   -2648.5500   -2648.5500    2667.9880      88.0000       0.8821    4177.7321    1648.8240    1909.7182    2344.3021    1074.1471       0.0000       5.2466       5.5821       1.0000 -999999.9999       3.6416       5.0535       5.4703       5.9155       5.2035       5.4853       4.7766       4.4866       4.4314       5.2466       5.5821       4.8552       4.5661       4.4557       0.6752       0.6167       4.5458       6.0579       4.4322       5.6955       5.0621       5.8827       4.9846       0.0000       4.9154       0.0000
      89.0   89000.0000      89.0000       1.4834         29          1          0     224103       8.5000    2853.5259     454.8964      42.3358     248.0000     215.6000    2835.0000    2566.0000       0.0000      78.0000       0.3130    1403.8679       3.8679       3.8679       0.8679       0.0679       0.4162     160.3551     102.0000      24.0000       4.0000    1999.9996      12.6921    1882.0000       0.0000     155.3000       0.0000       0.0000       0.0000       1.6581       0.1682       0.1682    1406.7242       0.0000      -7.1018   -2604.4517   -2604.4517    2692.0447      89.0000       0.8973    4245.2533    1631.2045    2021.4602    2339.8400    1081.9573       0.0000       5.2466       5.5821       1.0000 -999999.9999       3.6416       5.0535       5.4703       5.9155       5.2035       5.4853       4.7766       4.4866       4.4314       5.2466       5.5821       4.8552       4.5661       4.4557       0.6752       0.6167       4.5458       6.0579       4.4322       5.6955       5.0621       5.8827       4.9846       0.0000       5.2995       0.0000
      90.0   90000.0000      90.0000       1.5000         30          1          0     224104       8.5000    2853.5259     454.8964      42.3325    2717.0000     215.4200    2869.0000    2908.0000       0.0000      78.0000       0.2998    1405.2631       5.2631       5.2631       0.2631       0.0630       0.3290     160.3579     107.0000      39.0000       4.0000    1999.9996      12.6915    1901.0000       0.0000     155.3000       0.0000       0.0000       0.0000       2.9008       0.1682       0.1682    1408.1194       0.0000     -29.8383   -2553.8071   -2553.8071    2669.0786      90.0000       0.9125    4312.7744    1613.5851    2133.2021    2335.3779    1089.7676       0.0000       5.2466       5.5821       1.0000 -999999.9999       3.6416       5.0535       5.4703       5.9155       5.2035       5.4853       4.7766       4.4866       4.4314       5.2466       5.5821       4.8552       4.5661       4.4557       0.6752       0.6167       4.5458       6.0579       4.4322       5.6955       5.0621       5.8827       4.9846       0.0000       5.6836       0.0000
      91.0   91000.0000      91.0000       1.5167         31          1          0     224105       8.5000    2853.5259     454.8964      42.3426    2712.0000     215.6000    2879.0000    2904.0000       0.0000      78.0000       0.3031    1403.6801       3.6801       3.6801       0.6801       0.0800       0.2299     160.3607     107.0000      34.0000       4.0000    1999.9996      12.6921    1896.0000       0.0000     154.9400       0.0000       0.0000       0.0000       2.7221       0.1684       0.1684    1406.5364       0.0000     -18.7586   -2543.2080   -2543.2080    2680.0422      91.0000       0.9125    4219.1913    1685.5312    2253.7762    2363.9016    1100.6493       0.0000       4.7722       5.0594       1.0000 -999999.9999       3.4951       5.3819       5.5406       5.6925       4.9482       5.4630       4.8474       4.4754       4.2917       4.7722       5.0594       4.9054       4.6812       4.4293       0.3419       0.6167       4.5581       5.5919       4.6607       5.4738       5.1291       5.5863       5.1689       0.0000       5.6836       0.0000
      92.0   92000.0000      92.0000       1.5334         32          1          0     224106       8.5000    2853.5259     454.8964      42.2612    2718.0000     216.1400    2860.0000    2904.0000       0.0000      78.0000       0.3005    1403.5408       3.5408       3.5408       0.5408       0.0408       0.1292     160.3634     107.0000      34.0000       4.0000    1999.9996      12.6918    1901.0000       0.0000     155.1200       0.0000       0.0000       0.0000       1.7850       0.1688       0.1688    1406.3971       0.0000     -21.1736   -2545.0808   -2545.0808    2677.3428      92.0000       0.9125    4125.6082    1757.4773    2374.3503    2392.4253    1111.5311       0.0000       4.2978       4.5366       1.0000 -999999.9999       3.3486       5.7103       5.6109       5.4695       4.6928       5.4407       4.9183       4.4643       4.1520       4.2978       4.5366       4.9555       4.7963       4.4029       0.0085       0.6167       4.5703       5.1260       4.8892       5.2521       5.1960       5.2898       5.3532       0.0000       5.6836       0.0000
      93.0   93000.0000      93.0000       1.5500         33          1          0     224107       8.5000    2853.5259     454.8964      42.4007    2716.0000     215.9600    2864.0000    2904.0000       0.0000      78.0000       0.3019    1403.5363       3.5363       3.5363       0.5363       0.0362       0.0421     160.3663     102.0000      29.0000       4.0000    1999.9996      12.6927    1892.0000       0.0000     155.1200       0.0000       0.0000       0.0000       0.8546       0.1680       0.1680    1406.3926       0.0000      -9.8874   -2538.2183   -2538.2183    2688.4858      93.0000       0.9125    4032.0251    1829.4235    2494.9243    2420.9490    1122.4128       0.0000       3.8233       4.0138       1.0000 -999999.9999       3.2020       6.0387       5.6812       5.2465       4.4375       5.4184       4.9892       4.4531       4.0123       3.8233       4.0138       5.0056       4.9114       4.3765      -0.3248       0.6166       4.5825       4.6600       5.1176       5.0303       5.2630       4.9934       5.5375       0.0000       5.6836       0.0000
      94.0   94000.0000      94.0000       1.5667         34          1          0     224108       8.5000    2853.5259     454.8964      42.3301    2714.0000     215.7800    2855.0000    2908.0000       0.0000      78.0000       0.3011    1403.5686       3.5686       3.5686       0.5686       0.0686       0.0481     160.3694     107.0000      34.0000       4.0000    1999.9996      12.6908    1901.0000       0.0000     155.4800       0.0000       0.0000       0.0000       0.0130       0.1688       0.1688    1406.4249       0.0000     -16.9297   -2561.7690   -2561.7690    2681.3535      94.0000       0.9063    3965.5764    1797.2862    2494.3111    2384.4647    1131.3518       0.0000       4.2391       4.3359       1.0000 -999999.9999       3.6255       5.9161       5.6641       5.2465       4.7932       5.3529       4.8491       4.4075       4.1126       4.2391       4.3359       4.8888       4.9014       4.5032      -0.3341       0.6163       4.5847       4.8587       5.0788       5.0514       5.1428       4.9104       5.5011       0.0000       5.4981       0.0000
      95.0   95000.0000      95.0000       1.5834         35          1          0     224109       8.5000    2853.5259     454.8964      42.3975    2718.0000     216.1400    2860.0000    2904.0000       0.0000      78.0000       0.3003    1403.6206       3.6206       3.6206       0.6206       0.0206       0.3846     160.3719     107.0000      29.0000       4.0000    1999.9996      12.6920    1892.0000       0.0000     155.3000       0.0000       0.0000       0.0000      -0.6726       0.1697       0.1697    1406.4769       0.0000      -6.1184   -2569.6340   -2569.6340    2692.0447      95.0000       0.9001    3899.1277    1765.1490    2493.6979    2347.9804    1140.2908       0.0000       4.6548       4.6579       1.0000 -999999.9999       4.0489       5.7934       5.6471       5.2465       5.1488       5.2875       4.7090       4.3619       4.2130       4.6548       4.6579       4.7719       4.8914       4.6300      -0.3435       0.6160       4.5868       5.0575       5.0400       5.0724       5.0226       4.8274       5.4647       0.0000       5.3127       0.0000
