~VERSION INFORMATION
VERS.           3.0   :CWLS Log ASCII Standard - VERSION 3.0
WRAP.           NO    :One Line per depth step
DLM.          SPACE   :Column Data Section Delimiter Character
PROD.  Schlumberger   :LAS Producer
PROG.  DLIS to ASCII 2.3                               :LAS Program name and version
CREA.        2019/12/12 08:42                          :LAS Creation date {YYYY/MM/DD hh:mm}
DLIS_CREA.  2010-Jan-21 21:56                          :DLIS Creation date and time {YYYY-MMM-DD hh:mm}
SOURCE.     RCI_k800g35.dlis                           :DLIS File Name
FILE-ID.     BATLAS.001                                :File Identification Number
#--------------------------------------------------
~WELL INFORMATION
#MNEM.UNIT      DATA             DESCRIPTION
#---- ------ --------------   -----------------------------
STRT .S            0.0       :START TIME
STOP .S          228.0       :STOP DEPTH
STEP .S            1.0       :STEP
NULL .          -999.25      :NULL VALUE
COMP .        ECOPETROL                                :COMPANY
WELL .        HECHICERA-1                              :WELL
FLD  .        CANO SUR                                 :FIELD
LOC  .                                                 :LOCATION
CNTY .                                                 :COUNTY
STAT .                                                 :STATE
CTRY .                                                 :COUNTRY
API  .                                                 :API NUMBER
UWI  .                                                 :UNIQUE WELL ID
DATE .                                                 :LOG DATE
SRVC .        ATLAS                                    :SERVICE COMPANY
LATI .DEG                                              :LATITUDE
LONG .DEG                                              :LONGITUDE
GDAT .                                                 :GeoDetic Datum
#-----------------------------------------------------------------------------
~PARAMETER INFORMATION
#MNEM.UNIT    VALUE                      DESCRIPTION
#---- -----   --------------------       ------------------------
RUN  .                                   :RUN NUMBER
PDAT .                                   :Permanent Datum
EPD  .                                   :Elevation of Permanent Datum above Mean Sea Level
LMF  .                                   :Logging Measured From (Name of Logging Elevation Reference)
APD  .                                   :Elevation of Depth Reference (LMF) above Permanent Datum
#-----------------------------------------------------------------------------
~CURVE INFORMATION
#MNEM.UNIT   API CODE                                  DESCRIPTION
#---- -----  --------                                  -----------------------
TTIM .S                                                :TIME {F10.1}
TIME .MS                                               :system time since record start {F13.4}
SEC  .S                                                :time in seconds {F13.4}
MIN  .MN                                               :time in minutes {F13.4}
ESEC .S                                                :Remainder of sec curve since RECORD mode started in seconds. {I11}
EMIN .MN                                               :Remainder of sec since RECORD mode started in minutes {I11}
EHR  .HR                                               :Whole hours since RECORD mode started. {I11}
HHMMSS.                                                :hours, minutes, seconds {I11}
BIT  .IN                                               :bit size {F13.4}
DEPTH.F                                                :system depth {F13.4}
WTBH .DEGF                                             :temperature of the borehole {F13.4}
WRM  .OHMM                                             :mud resistivity {F13.4}
APGC .PSI                                              :1970CB hydraulic system pressure {F13.4}
RTDC .DEGF                                             :1970CA motor temperature {F13.4}
ECLP .PSI                                              :pressure emergency close reservoir {F13.4}
FPAD .PSI                                              :packer extend pressure {F13.4}
RPAD .PSI                                              :packer retract pressure {F13.4}
RCPERM.                                                :Dielectric constant of fluid in R/C sensor {F13.4}
RCRES.OHMM                                             :Resistivity of fluid in R/C sensor {F13.4}
APQL .PSI                                              :1970LB Quartzdyne gauge pressure {F13.4}
ONESB.PSI                                              :Pressure less than 10 {F13.4}
TENSB.PSI                                              :Pressure less than 100.0 {F13.4}
DECSB.PSI                                              :Pressure less than 1.0 {F13.4}
HNDSB.PSI                                              :Pressure less than 0.1 {F13.4}
DPTL .P/MN                                             :1970LB differential pressure {F13.4}
RTDQL.DEGF                                             :1970LA Quartzdyne pressure gauge temperature {F13.4}
PEXR .PSI                                              :1970RB Pump Extend Pressure {F13.4}
PRER .PSI                                              :1970RB Pump Retracted Pressure {F13.4}
PSCR .                                                 :1970RB Pump Strokes Count {F13.4}
PTVR .C3                                               :1970RB Pumped volume {F13.4}
LMP  .CM                                               :pump piston position {F13.4}
PEXB .PSI                                              :piston extend pressure {F13.4}
PREB .PSI                                              :piston retract pressure {F13.4}
PVTT .DEGF                                             :pump chamber temperature {F13.4}
DDV  .C3                                               :drawdown volume {F13.4}
PVTV .C3                                               :PVT volume {F13.4}
PTV  .C3                                               :pt_vol for rci {F13.4}
BUQC .P/MN                                             :build-up quality curve {F13.4}
RTLQC.                                                 :Delta rtdql/delta time {F13.4}
RTKQC.                                                 :Delta rtdqk/delta time {F13.4}
PLCOR.PSI                                              :apqk depth corrected {F13.4}
CPTV .C3                                               :Cumulative pump-through volume {F13.4}
TEN  .LBF                                              :differential tension {F13.4}
CHT4 .LBF                                              :cable head tension {F13.4}
CHT  .LBF                                              :cable head tension {F13.4}
TTEN .LBF                                              :total tension {F13.4}
TTIM .S                                                :  3.000000 s frame 1 time {F13.4}
CMOSS.J.                                               :Clausius-Mossotti Refractive Index {F13.4}
FLCH2.J.                                               :Flourescence channel 2 (475 nm) {F13.4}
FLCH3.J.                                               :Flourescence channel 3 (525 nm) {F13.4}
FLCH4.J.                                               :Flourescence channel 4 (575 nm) {F13.4}
FLCH5.J.                                               :Flourescence channel 5 (632 nm) {F13.4}
FLCH6.J.                                               :Flourescence channel 6 (694 nm) {F13.4}
GASF.J.                                                :Gas Fraction {F13.4}
M1.J .                                                 :1670 nanometer optical density {F13.4}
M2.J .                                                 :1682 nanometer optical density {F13.4}
MUDF.J.                                                :Mud Fraction {F13.4}
NACL.J.PPM                                             :NaCl Concentration {F13.4}
OD1.J.                                                 :Optical Density, Channel 1 {F13.4}
OD10.J.                                                :Optical Density, Channel 10 {F13.4}
OD11.J.                                                :Optical Density, Channel 11 {F13.4}
OD12.J.                                                :Optical Density, Channel 12 {F13.4}
OD13.J.                                                :Optical Density, Channel 13 {F13.4}
OD14.J.                                                :Optical Density, Channel 14 {F13.4}
OD15.J.                                                :Optical Density, Channel 15 {F13.4}
OD16.J.                                                :Optical Density, Channel 16 {F13.4}
OD17.J.                                                :Optical Density, Channel 17 {F13.4}
OD18.J.                                                :Optical Density, Channel 18 {F13.4}
OD19.J.                                                :Optical Density, Channel 19 {F13.4}
OD2.J.                                                 :Optical Density, Channel 2 {F13.4}
OD20.J.                                                :Optical Density, Channel 20 {F13.4}
OD21.J.                                                :Optical Density, Channel 21 {F13.4}
OD22.J.                                                :Optical Density, Channel 22 {F13.4}
OD23.J.                                                :Optical Density, Channel 23 {F13.4}
OD3.J.                                                 :Optical Density, Channel 3 {F13.4}
OD4.J.                                                 :Optical Density, Channel 4 {F13.4}
OD5.J.                                                 :Optical Density, Channel 5 {F13.4}
OD6.J.                                                 :Optical Density, Channel 6 {F13.4}
OD7.J.                                                 :Optical Density, Channel 7 {F13.4}
OD8.J.                                                 :Optical Density, Channel 8 {F13.4}
OD9.J.                                                 :Optical Density, Channel 9 {F13.4}
OILF.J.                                                :Oil Fraction {F13.4}
REFRI.J.                                               :Refractive index, 1740 nm {F13.4}
WTRF.J.                                                :Water Fraction {F13.4}
#-----------------------------------------------------------------------------
#
#     TTIM        TIME         SEC          MIN          ESEC            EMIN            EHR             HHMMSS          BIT         DEPTH         WTBH         WRM          APGC         RTDC         ECLP         FPAD         RPAD        RCPERM       RCRES         APQL        ONESB        TENSB        DECSB        HNDSB         DPTL        RTDQL         PEXR         PRER         PSCR         PTVR         LMP          PEXB         PREB         PVTT         DDV          PVTV         PTV          BUQC        RTLQC        RTKQC        PLCOR         CPTV         TEN          CHT4         CHT          TTEN         TTIM       CMOSS.J      FLCH2.J      FLCH3.J      FLCH4.J      FLCH5.J      FLCH6.J       GASF.J        M1.J         M2.J        MUDF.J       NACL.J       OD1.J        OD10.J       OD11.J       OD12.J       OD13.J       OD14.J       OD15.J       OD16.J       OD17.J       OD18.J       OD19.J       OD2.J        OD20.J       OD21.J       OD22.J       OD23.J       OD3.J        OD4.J        OD5.J        OD6.J        OD7.J        OD8.J        OD9.J        OILF.J      REFRI.J       WTRF.J
#
~Ascii | Curve
# ...
     120.0  120000.0000     120.0000       2.0000          0          2          0     224134       8.5000    2853.5259     454.8964      42.3432     169.0000     216.3200    2845.0000    2894.0000       0.0000      78.0000       0.3212    1404.1372       4.1372       4.1372       0.1372       0.0372       1.2275     160.4421      88.0000       9.0000       4.0000    1999.9996      12.6908    1872.0000       0.0000     155.1200       0.0000       0.0000       0.0000       0.1776       0.1697       0.1697    1406.9935       0.0000       0.1530   -2625.0688   -2625.0688    2695.5964     120.0000       0.8769    1673.7214    2217.6094    2533.5015    2004.0734     497.2715       0.0000       3.9565       4.0022       1.0000 -999999.9999       4.0590       5.3397       5.6811       4.8014       4.8677       5.4184       4.6344       5.1855      10.0000       3.9565       4.0022       5.4680       4.5260       3.9371       0.4614       0.6154       4.7075       5.2128       5.4534       6.1214       5.1924       4.9662       4.9354       0.0000       4.7294       0.0000
     121.0  121000.0000     121.0000       2.0167          1          2          0     224135       8.5000    2853.5259     454.8964      42.3548     160.0000     216.6800    2840.0000    2889.0000       0.0000      78.0000       0.3206    1404.1625       4.1625       4.1625       0.1625       0.0625       1.1944     160.4451      88.0000       9.0000       4.0000    1999.9996      12.6909    1877.0000       0.0000     155.1200       0.0000       0.0000       0.0000       0.8191       0.1681       0.1681    1407.0188       0.0000     -10.4983   -2601.3579   -2601.3579    2684.9307     121.0000       0.8873    1656.3989    2197.5326    2398.2347    1915.4319     486.7001       0.0000       3.9565       4.0022       1.0000 -999999.9999       4.0590       5.3397       5.6811       4.8014       4.8677       5.4184       4.6344       5.1855      10.0000       3.9565       4.0022       5.4680       4.5260       3.9371       0.4614       0.6154       4.7075       5.2128       5.4534       6.1214       5.1924       4.9662       4.9354       0.0000       4.9987       0.0000
     122.0  122000.0000     122.0000       2.0334          2          2          0     224136       8.5000    2853.5259     454.8964      42.2501     152.0000     217.0400    2845.0000    2889.0000       0.0000      78.0000       0.3229    1404.1738       4.1738       4.1738       0.1738       0.0738       1.1508     160.4476      88.0000       9.0000       4.0000    1999.9996      12.6910    1872.0000       0.0000     155.4800       0.0000       0.0000       0.0000       1.1382       0.1679       0.1679    1407.0302       0.0000     -14.1545   -2620.5339   -2620.5339    2681.1367     122.0000       0.8977    1639.0764    2177.4557    2262.9679    1826.7904     476.1288       0.0000       3.9565       4.0022       1.0000 -999999.9999       4.0590       5.3397       5.6811       4.8014       4.8677       5.4184       4.6344       5.1855      10.0000       3.9565       4.0022       5.4680       4.5260       3.9371       0.4614       0.6154       4.7075       5.2128       5.4534       6.1214       5.1924       4.9662       4.9354       0.0000       5.2681       0.0000
     123.0  123000.0000     123.0000       2.0500          3          2          0     224137       8.5000    2853.5259     454.8964      42.4118     152.0000     216.8600    2845.0000    2879.0000       0.0000      78.0000       0.3215    1404.1802       4.1802       4.1802       0.1802       0.0802       1.1043     160.4508      83.0000       9.0000       4.0000    1999.9996      12.6880    1877.0000       0.0000     155.1200       0.0000       0.0000       0.0000       1.2487       0.1688       0.1688    1407.0365       0.0000      -1.7560   -2549.6724   -2549.6724    2693.4331     123.0000       0.9082    1621.7539    2157.3789    2127.7012    1738.1489     465.5574       0.0000       3.9565       4.0022       1.0000 -999999.9999       4.0590       5.3397       5.6811       4.8014       4.8677       5.4184       4.6344       5.1855      10.0000       3.9565       4.0022       5.4680       4.5260       3.9371       0.4614       0.6154       4.7075       5.2128       5.4534       6.1214       5.1924       4.9662       4.9354       0.0000       5.5374       0.0000
     124.0  124000.0000     124.0000       2.0667          4          2          0     224138       8.5000    2853.5259     454.8964      42.2363     154.0000     217.0400    2840.0000    2884.0000       0.0000      78.0000       0.3233    1404.2014       4.2014       4.2014       0.2014       0.0014       1.0592     160.4533      83.0000       4.0000       4.0000    1999.9996      12.6905    1867.0000       4.0000     155.3000       0.0000       0.0000       0.0000       1.2588       0.1690       0.1690    1407.0577       0.0000      -6.3752   -2586.2480   -2586.2480    2688.6841     124.0000       0.9082    1604.4314    2137.3020    1992.4344    1649.5074     454.9860       0.0000       4.0209       4.0629       1.0000 -999999.9999       4.0046       5.3720       5.5105       4.7978       4.7566       5.7001       4.7314       4.9261       8.1532       4.0209       4.0629       5.2826       4.7548       3.8859       0.3611       0.6155       4.6992       5.2822       5.3208       5.8397       5.3444       5.0804       6.6236       0.0000       5.5374       0.0000
     125.0  125000.0000     125.0000       2.0834          5          2          0     224139       8.5000    2853.5259     454.8964      42.3862     158.0000     217.0400    2840.0000    2894.0000       0.0000      78.0000       0.3237    1404.2300       4.2300       4.2300       0.2300       0.0300       1.0246     160.4561      88.0000       4.0000       4.0000    1999.9996      12.6896    1877.0000       0.0000     155.3000       0.0000       0.0000       0.0000       1.2412       0.1682       0.1682    1407.0863       0.0000      -5.0087   -2573.6072   -2573.6072    2690.0396     125.0000       0.9082    1587.1088    2117.2251    1857.1676    1560.8659     444.4146       0.0000       4.0853       4.1235       1.0000 -999999.9999       3.9502       5.4044       5.3399       4.7941       4.6456       5.9818       4.8284       4.6667       6.3063       4.0853       4.1235       5.0971       4.9836       3.8347       0.2608       0.6155       4.6909       5.3517       5.1881       5.5580       5.4964       5.1945       8.3118       0.0000       5.5374       0.0000
     126.0  126000.0000     126.0000       2.1000          6          2          0     224140       8.5000    2853.5259     454.8964      42.3077     158.0000     217.5800    2845.0000    2884.0000       0.0000      78.0000       0.3240    1404.2539       4.2539       4.2539       0.2539       0.0539       0.9781     160.4590      83.0000       4.0000       4.0000    1999.9996      12.6923    1882.0000       0.0000     155.3000       0.0000       0.0000       0.0000       1.2107       0.1686       0.1686    1407.1102       0.0000     -26.0661   -2573.3550   -2573.3550    2668.8401     126.0000       0.9082    1569.7863    2097.1482    1721.9008    1472.2244     433.8432       0.0000       4.1497       4.1841       1.0000 -999999.9999       3.8958       5.4367       5.1692       4.7904       4.5345       6.2635       4.9255       4.4074       4.4595       4.1497       4.1841       4.9117       5.2124       3.7836       0.1604       0.6156       4.6826       5.4211       5.0555       5.2763       5.6484       5.3087      10.0000       0.0000       5.5374       0.0000
     127.0  127000.0000     127.0000       2.1167          7          2          0     224141       8.5000    2853.5259     454.8964      42.3111     153.0000     217.4000    2840.0000    2889.0000       0.0000      78.0000       0.3236    1404.2771       4.2771       4.2771       0.2771       0.0771       0.9345     160.4619      83.0000       4.0000       4.0000    1999.9996      12.6904    1877.0000       0.0000     155.4800       0.0000       0.0000       0.0000       1.1868       0.1688       0.1688    1407.1334       0.0000     -13.7881   -2628.1538   -2628.1538    2680.9202     127.0000       0.9013    1603.8470    2087.6133    1782.1560    1426.5062     430.6735       0.0000       4.1282       4.3167       1.0000 -999999.9999       3.7759       5.4367       5.1438       5.0428       4.5906       6.1044       4.9716       4.4173       4.7511       4.1282       4.3167       4.6306       4.8671       3.9002      -0.0990       0.6154       4.8500       5.1215       5.1881       5.3250       5.4700       5.1780       8.5125       0.0000       5.3475       0.0000
