~VERSION INFORMATION
VERS.           3.0   :CWLS Log ASCII Standard - VERSION 3.0
WRAP.           NO    :One Line per depth step
DLM.          SPACE   :Column Data Section Delimiter Character
PROD.  Schlumberger   :LAS Producer
PROG.  DLIS to ASCII 2.3                               :LAS Program name and version
CREA.        2019/12/12 08:42                          :LAS Creation date {YYYY/MM/DD hh:mm}
DLIS_CREA.  2010-Jan-21 21:56                          :DLIS Creation date and time {YYYY-MMM-DD hh:mm}
SOURCE.     RCI_k800g35.dlis                           :DLIS File Name
FILE-ID.     BATLAS.001                                :File Identification Number
#--------------------------------------------------
~WELL INFORMATION
#MNEM.UNIT      DATA             DESCRIPTION
#---- ------ --------------   -----------------------------
STRT .S            0.0       :START TIME
STOP .S          228.0       :STOP DEPTH
STEP .S            1.0       :STEP
NULL .          -999.25      :NULL VALUE
COMP .        ECOPETROL                                :COMPANY
WELL .        HECHICERA-1                              :WELL
FLD  .        CANO SUR                                 :FIELD
LOC  .                                                 :LOCATION
CNTY .                                                 :COUNTY
STAT .                                                 :STATE
CTRY .                                                 :COUNTRY
API  .                                                 :API NUMBER
UWI  .                                                 :UNIQUE WELL ID
DATE .                                                 :LOG DATE
SRVC .        ATLAS                                    :SERVICE COMPANY
LATI .DEG                                              :LATITUDE
LONG .DEG                                              :LONGITUDE
GDAT .                                                 :GeoDetic Datum
#-----------------------------------------------------------------------------
~PARAMETER INFORMATION
#MNEM.UNIT    VALUE                      DESCRIPTION
#---- -----   --------------------       ------------------------
RUN  .                                   :RUN NUMBER
PDAT .                                   :Permanent Datum
EPD  .                                   :Elevation of Permanent Datum above Mean Sea Level
LMF  .                                   :Logging Measured From (Name of Logging Elevation Reference)
APD  .                                   :Elevation of Depth Reference (LMF) above Permanent Datum
#-----------------------------------------------------------------------------
~CURVE INFORMATION
#MNEM.UNIT   API CODE                                  DESCRIPTION
#---- -----  --------                                  -----------------------
TTIM .S                                                :TIME {F10.1}
TIME .MS                                               :system time since record start {F13.4}
SEC  .S                                                :time in seconds {F13.4}
MIN  .MN                                               :time in minutes {F13.4}
ESEC .S                                                :Remainder of sec curve since RECORD mode started in seconds. {I11}
EMIN .MN                                               :Remainder of sec since RECORD mode started in minutes {I11}
EHR  .HR                                               :Whole hours since RECORD mode started. {I11}
HHMMSS.                                                :hours, minutes, seconds {I11}
BIT  .IN                                               :bit size {F13.4}
DEPTH.F                                                :system depth {F13.4}
WTBH .DEGF                                             :temperature of the borehole {F13.4}
WRM  .OHMM                                             :mud resistivity {F13.4}
APGC .PSI                                              :1970CB hydraulic system pressure {F13.4}
RTDC .DEGF                                             :1970CA motor temperature {F13.4}
ECLP .PSI                                              :pressure emergency close reservoir {F13.4}
FPAD .PSI                                              :packer extend pressure {F13.4}
RPAD .PSI                                              :packer retract pressure {F13.4}
RCPERM.                                                :Dielectric constant of fluid in R/C sensor {F13.4}
RCRES.OHMM                                             :Resistivity of fluid in R/C sensor {F13.4}
APQL .PSI                                              :1970LB Quartzdyne gauge pressure {F13.4}
ONESB.PSI                                              :Pressure less than 10 {F13.4}
TENSB.PSI                                              :Pressure less than 100.0 {F13.4}
DECSB.PSI                                              :Pressure less than 1.0 {F13.4}
HNDSB.PSI                                              :Pressure less than 0.1 {F13.4}
DPTL .P/MN                                             :1970LB differential pressure {F13.4}
RTDQL.DEGF                                             :1970LA Quartzdyne pressure gauge temperature {F13.4}
PEXR .PSI                                              :1970RB Pump Extend Pressure {F13.4}
PRER .PSI                                              :1970RB Pump Retracted Pressure {F13.4}
PSCR .                                                 :1970RB Pump Strokes Count {F13.4}
PTVR .C3                                               :1970RB Pumped volume {F13.4}
LMP  .CM                                               :pump piston position {F13.4}
PEXB .PSI                                              :piston extend pressure {F13.4}
PREB .PSI                                              :piston retract pressure {F13.4}
PVTT .DEGF                                             :pump chamber temperature {F13.4}
DDV  .C3                                               :drawdown volume {F13.4}
PVTV .C3                                               :PVT volume {F13.4}
PTV  .C3                                               :pt_vol for rci {F13.4}
BUQC .P/MN                                             :build-up quality curve {F13.4}
RTLQC.                                                 :Delta rtdql/delta time {F13.4}
RTKQC.                                                 :Delta rtdqk/delta time {F13.4}
PLCOR.PSI                                              :apqk depth corrected {F13.4}
CPTV .C3                                               :Cumulative pump-through volume {F13.4}
TEN  .LBF                                              :differential tension {F13.4}
CHT4 .LBF                                              :cable head tension {F13.4}
CHT  .LBF                                              :cable head tension {F13.4}
TTEN .LBF                                              :total tension {F13.4}
TTIM .S                                                :  3.000000 s frame 1 time {F13.4}
CMOSS.J.                                               :Clausius-Mossotti Refractive Index {F13.4}
FLCH2.J.                                               :Flourescence channel 2 (475 nm) {F13.4}
FLCH3.J.                                               :Flourescence channel 3 (525 nm) {F13.4}
FLCH4.J.                                               :Flourescence channel 4 (575 nm) {F13.4}
FLCH5.J.                                               :Flourescence channel 5 (632 nm) {F13.4}
FLCH6.J.                                               :Flourescence channel 6 (694 nm) {F13.4}
GASF.J.                                                :Gas Fraction {F13.4}
M1.J .                                                 :1670 nanometer optical density {F13.4}
M2.J .                                                 :1682 nanometer optical density {F13.4}
MUDF.J.                                                :Mud Fraction {F13.4}
NACL.J.PPM                                             :NaCl Concentration {F13.4}
OD1.J.                                                 :Optical Density, Channel 1 {F13.4}
OD10.J.                                                :Optical Density, Channel 10 {F13.4}
OD11.J.                                                :Optical Density, Channel 11 {F13.4}
OD12.J.                                                :Optical Density, Channel 12 {F13.4}
OD13.J.                                                :Optical Density, Channel 13 {F13.4}
OD14.J.                                                :Optical Density, Channel 14 {F13.4}
OD15.J.                                                :Optical Density, Channel 15 {F13.4}
OD16.J.                                                :Optical Density, Channel 16 {F13.4}
OD17.J.                                                :Optical Density, Channel 17 {F13.4}
OD18.J.                                                :Optical Density, Channel 18 {F13.4}
OD19.J.                                                :Optical Density, Channel 19 {F13.4}
OD2.J.                                                 :Optical Density, Channel 2 {F13.4}
OD20.J.                                                :Optical Density, Channel 20 {F13.4}
OD21.J.                                                :Optical Density, Channel 21 {F13.4}
OD22.J.                                                :Optical Density, Channel 22 {F13.4}
OD23.J.                                                :Optical Density, Channel 23 {F13.4}
OD3.J.                                                 :Optical Density, Channel 3 {F13.4}
OD4.J.                                                 :Optical Density, Channel 4 {F13.4}
OD5.J.                                                 :Optical Density, Channel 5 {F13.4}
OD6.J.                                                 :Optical Density, Channel 6 {F13.4}
OD7.J.                                                 :Optical Density, Channel 7 {F13.4}
OD8.J.                                                 :Optical Density, Channel 8 {F13.4}
OD9.J.                                                 :Optical Density, Channel 9 {F13.4}
OILF.J.                                                :Oil Fraction {F13.4}
REFRI.J.                                               :Refractive index, 1740 nm {F13.4}
WTRF.J.                                                :Water Fraction {F13.4}
#-----------------------------------------------------------------------------
#
#     TTIM        TIME         SEC          MIN          ESEC            EMIN            EHR             HHMMSS          BIT         DEPTH         WTBH         WRM          APGC         RTDC         ECLP         FPAD         RPAD        RCPERM       RCRES         APQL        ONESB        TENSB        DECSB        HNDSB         DPTL        RTDQL         PEXR         PRER         PSCR         PTVR         LMP          PEXB         PREB         PVTT         DDV          PVTV         PTV          BUQC        RTLQC        RTKQC        PLCOR         CPTV         TEN          CHT4         CHT          TTEN         TTIM       CMOSS.J      FLCH2.J      FLCH3.J      FLCH4.J      FLCH5.J      FLCH6.J       GASF.J        M1.J         M2.J        MUDF.J       NACL.J       OD1.J        OD10.J       OD11.J       OD12.J       OD13.J       OD14.J       OD15.J       OD16.J       OD17.J       OD18.J       OD19.J       OD2.J        OD20.J       OD21.J       OD22.J       OD23.J       OD3.J        OD4.J        OD5.J        OD6.J        OD7.J        OD8.J        OD9.J        OILF.J      REFRI.J       WTRF.J
#
~Ascii | Curve
# ...
      32.0   32000.0000      32.0000       0.5333         32          0          0     224006       8.5000    2853.5259     454.8964      42.1625     169.0000     213.8000    2864.0000       0.0000    2664.0000      78.0000       0.3195    1401.9504       1.9504       1.9504       0.9504       0.0504       0.0886     160.1914       0.0000       0.0000       4.0000    1999.9996      12.6913    1896.0000       0.0000     154.7600       0.0000       0.0000       0.0000       0.1508       0.1786       0.1786    1404.8068       0.0000     -19.3898   -2558.4385   -2558.4385    2689.7971      32.0000       0.9153    3812.4775    2495.6077    1811.1895    2122.3984     913.8887       0.0000       5.0652       4.3322       1.0000 -999999.9999       3.6521       5.3920       5.5221       5.0006       4.3929       4.7723       5.3302       4.7705       4.4701       5.0652       4.3322       4.4134       4.7600       3.7662      -0.0243       0.6171       4.8182       5.0351       4.9131       5.2622       5.3250       5.5641       5.0736       0.0000       5.7805       0.0000
      33.0   33000.0000      33.0000       0.5500         33          0          0     224007       8.5000    2853.5259     454.8964      42.2313     226.0000     214.1600    2869.0000       0.0000    2669.0000      78.0000       0.3184    1401.9513       1.9513       1.9513       0.9513       0.0513       0.2284     160.1946       0.0000       0.0000       4.0000    1999.9996      12.6913    1901.0000       0.0000     155.1200       0.0000       0.0000       0.0000       0.1480       0.1774       0.1774    1404.8076       0.0000     -24.0800   -2622.4590   -2622.4590    2684.9307      33.0000       0.9153    3579.3320    2370.0728    1869.8562    2116.1917     919.8789       0.0000       5.2466       4.5028       1.0000 -999999.9999       3.8192       5.3697       5.3801       4.9947       4.4764       4.8485       5.5689       4.7705       4.1884       5.2466       4.5028       4.3376       4.8270       3.7481      -0.1901       0.6170       4.7918       5.2340       4.9528       5.1672       5.1924       5.2543       5.1784       0.0000       5.7805       0.0000
      34.0   34000.0000      34.0000       0.5667         34          0          0     224008       8.5000    2853.5259     454.8964      42.3091    2714.0000     213.4400    2879.0000       0.0000    2679.0000      78.0000       0.3104    1401.7855       1.7855       1.7855       0.7855       0.0855       0.3380     160.1974      14.0000       0.0000       4.0000    1999.9996      12.6900    1921.0000       0.0000     154.7600       0.0000       0.0000       0.0000      -0.0104       0.1780       0.1780    1404.6418       0.0000     -27.3917   -2491.5571   -2491.5571    2681.3535      34.0000       0.9112    3443.5175    2233.8451    1867.6923    2132.2766     935.4351       0.0000       5.2466       4.5028       1.0000 -999999.9999       3.8192       5.3697       5.3801       4.9947       4.4764       4.8485       5.5689       4.7705       4.1884       5.2466       4.5028       4.3376       4.8270       3.7481      -0.1901       0.6170       4.7918       5.2340       4.9528       5.1672       5.1924       5.2543       5.1784       0.0000       5.6478       0.0000
      35.0   35000.0000      35.0000       0.5833         35          0          0     224009       8.5000    2853.5259     454.8964      42.2029    2717.0000     213.8000    2879.0000       0.0000    2679.0000      78.0000       0.3110    1401.7865       1.7865       1.7865       0.7865       0.0865       0.4056     160.2003      14.0000       0.0000       4.0000    1999.9996      12.6904    1911.0000       0.0000     154.9400       0.0000       0.0000       0.0000      -0.2504       0.1767       0.1767    1404.6428       0.0000     -13.8392   -2537.3127   -2537.3127    2694.7441      35.0000       0.9072    3307.7030    2097.6174    1865.5283    2148.3616     950.9913       0.0000       5.2466       4.5028       1.0000 -999999.9999       3.8192       5.3697       5.3801       4.9947       4.4764       4.8485       5.5689       4.7705       4.1884       5.2466       4.5028       4.3376       4.8270       3.7481      -0.1901       0.6170       4.7918       5.2340       4.9528       5.1672       5.1924       5.2543       5.1784       0.0000       5.5152       0.0000
      36.0   36000.0000      36.0000       0.6000         36          0          0     224010       8.5000    2853.5259     454.8964      42.2147    3689.0000     214.3400    2879.0000       0.0000    2684.0000      78.0000       0.3095    1401.8108       1.8108       1.8108       0.8108       0.0108       0.3681     160.2033      14.0000       0.0000       4.0000    1999.9996      12.6903    1911.0000       0.0000     155.3000       0.0000       0.0000       0.0000      -0.4264       0.1763       0.1763    1404.6671       0.0000     -25.8668   -2512.8074   -2512.8074    2682.4480      36.0000       0.9031    3171.8884    1961.3898    1863.3644    2164.4465     966.5475       0.0000       5.2466       4.5028       1.0000 -999999.9999       3.8192       5.3697       5.3801       4.9947       4.4764       4.8485       5.5689       4.7705       4.1884       5.2466       4.5028       4.3376       4.8270       3.7481      -0.1901       0.6170       4.7918       5.2340       4.9528       5.1672       5.1924       5.2543       5.1784       0.0000       5.3826       0.0000
      37.0   37000.0000      37.0000       0.6167         37          0          0     224011       8.5000    2853.5259     454.8964      42.2958    2717.0000     213.6200    2884.0000       0.0000    2679.0000      78.0000       0.3091    1401.8389       1.8389       1.8389       0.8389       0.0388       0.3230     160.2062      14.0000       0.0000       4.0000    1999.9996      12.6922    1911.0000       0.0000     155.1200       0.0000       0.0000       0.0000      -0.5381       0.1752       0.1752    1404.6952       0.0000     -12.1488   -2561.9880   -2561.9880    2696.0554      37.0000       0.9031    3205.2013    1848.9578    1817.9993    2174.2338     954.5699       0.0000       4.9132       4.3479       1.0000 -999999.9999       3.9503       5.2694       5.4344       5.0270       4.5122       4.9187       5.5689       4.9828       4.4377       4.9132       4.3479       4.3900       5.0042       3.8401       0.0244       0.6173       5.1321       4.9575       5.1784       5.3626       5.3667       5.2631       5.5798       0.0000       5.3826       0.0000
      38.0   38000.0000      38.0000       0.6333         38          0          0     224012       8.5000    2853.5259     454.8964      42.1663    2717.0000     213.8000    2884.0000       0.0000    2674.0000      78.0000       0.3130    1401.8676       1.8676       1.8676       0.8676       0.0675       0.2794     160.2092       9.0000       0.0000       4.0000    1999.9996      12.6897    1921.0000       0.0000     154.7600       0.0000       0.0000       0.0000      -0.5782       0.1764       0.1764    1404.7239       0.0000      -0.4888   -2506.5532   -2506.5532    2707.6763      38.0000       0.9031    3238.5142    1736.5258    1772.6342    2184.0211     942.5924       0.0000       4.5799       4.1929       1.0000 -999999.9999       4.0815       5.1690       5.4886       5.0592       4.5479       4.9890       5.5689       5.1950       4.6871       4.5799       4.1929       4.4424       5.1813       3.9322       0.2388       0.6175       5.4725       4.6811       5.4039       5.5580       5.5410       5.2718       5.9811       0.0000       5.3826       0.0000
      39.0   39000.0000      39.0000       0.6500         39          0          0     224013       8.5000    2853.5259     454.8964      42.2052    2718.0000     213.8000    2879.0000       0.0000    2679.0000      78.0000       0.3129    1401.8927       1.8927       1.8927       0.8927       0.0927       0.3050     160.2119       9.0000       0.0000       4.0000    1999.9996      12.6879    1906.0000       0.0000     154.9400       0.0000       0.0000       0.0000      -0.5606       0.1760       0.1760    1404.7490       0.0000     -34.0482   -2535.9358   -2535.9358    2673.7876      39.0000       0.9031    3271.8271    1624.0938    1727.2692    2193.8083     930.6148       0.0000       4.2465       4.0379       1.0000 -999999.9999       4.2127       5.0686       5.5428       5.0915       4.5836       5.0593       5.5689       5.4073       4.9365       4.2465       4.0379       4.4948       5.3585       4.0243       0.4533       0.6178       5.8129       4.4046       5.6295       5.7534       5.7152       5.2806       6.3825       0.0000       5.3826       0.0000
