~VERSION INFORMATION
VERS.           3.0   :CWLS Log ASCII Standard - VERSION 3.0
WRAP.           NO    :One Line per depth step
DLM.          SPACE   :Column Data Section Delimiter Character
PROD.  Schlumberger   :LAS Producer
PROG.  DLIS to ASCII 2.3                               :LAS Program name and version
CREA.        2019/12/12 08:42                          :LAS Creation date {YYYY/MM/DD hh:mm}
DLIS_CREA.  2010-Jan-21 21:56                          :DLIS Creation date and time {YYYY-MMM-DD hh:mm}
SOURCE.     RCI_k800g35.dlis                           :DLIS File Name
FILE-ID.     BATLAS.001                                :File Identification Number
#--------------------------------------------------
~WELL INFORMATION
#MNEM.UNIT      DATA             DESCRIPTION
#---- ------ --------------   -----------------------------
STRT .S            0.0       :START TIME
STOP .S          228.0       :STOP DEPTH
STEP .S            1.0       :STEP
NULL .          -999.25      :NULL VALUE
COMP .        ECOPETROL                                :COMPANY
WELL .        HECHICERA-1                              :WELL
FLD  .        CANO SUR                                 :FIELD
LOC  .                                                 :LOCATION
CNTY .                                                 :COUNTY
STAT .                                                 :STATE
CTRY .                                                 :COUNTRY
API  .                                                 :API NUMBER
UWI  .                                                 :UNIQUE WELL ID
DATE .                                                 :LOG DATE
SRVC .        ATLAS                                    :SERVICE COMPANY
LATI .DEG                                              :LATITUDE
LONG .DEG                                              :LONGITUDE
GDAT .                                                 :GeoDetic Datum
#-----------------------------------------------------------------------------
~PARAMETER INFORMATION
#MNEM.UNIT    VALUE                      DESCRIPTION
#---- -----   --------------------       ------------------------
RUN  .                                   :RUN NUMBER
PDAT .                                   :Permanent Datum
EPD  .                                   :Elevation of Permanent Datum above Mean Sea Level
LMF  .                                   :Logging Measured From (Name of Logging Elevation Reference)
APD  .                                   :Elevation of Depth Reference (LMF) above Permanent Datum
#-----------------------------------------------------------------------------
~CURVE INFORMATION
#MNEM.UNIT   API CODE                                  DESCRIPTION
#---- -----  --------                                  -----------------------
TTIM .S                                                :TIME {F10.1}
TIME .MS                                               :system time since record start {F13.4}
SEC  .S                                                :time in seconds {F13.4}
MIN  .MN                                               :time in minutes {F13.4}
ESEC .S                                                :Remainder of sec curve since RECORD mode started in seconds. {I11}
EMIN .MN                                               :Remainder of sec since RECORD mode started in minutes {I11}
EHR  .HR                                               :Whole hours since RECORD mode started. {I11}
HHMMSS.                                                :hours, minutes, seconds {I11}
BIT  .IN                                               :bit size {F13.4}
DEPTH.F                                                :system depth {F13.4}
WTBH .DEGF                                             :temperature of the borehole {F13.4}
WRM  .OHMM                                             :mud resistivity {F13.4}
APGC .PSI                                              :1970CB hydraulic system pressure {F13.4}
RTDC .DEGF                                             :1970CA motor temperature {F13.4}
ECLP .PSI                                              :pressure emergency close reservoir {F13.4}
FPAD .PSI                                              :packer extend pressure {F13.4}
RPAD .PSI                                              :packer retract pressure {F13.4}
RCPERM.                                                :Dielectric constant of fluid in R/C sensor {F13.4}
RCRES.OHMM                                             :Resistivity of fluid in R/C sensor {F13.4}
APQL .PSI                                              :1970LB Quartzdyne gauge pressure {F13.4}
ONESB.PSI                                              :Pressure less than 10 {F13.4}
TENSB.PSI                                              :Pressure less than 100.0 {F13.4}
DECSB.PSI                                              :Pressure less than 1.0 {F13.4}
HNDSB.PSI                                              :Pressure less than 0.1 {F13.4}
DPTL .P/MN                                             :1970LB differential pressure {F13.4}
RTDQL.DEGF                                             :1970LA Quartzdyne pressure gauge temperature {F13.4}
PEXR .PSI                                              :1970RB Pump Extend Pressure {F13.4}
PRER .PSI                                              :1970RB Pump Retracted Pressure {F13.4}
PSCR .                                                 :1970RB Pump Strokes Count {F13.4}
PTVR .C3                                               :1970RB Pumped volume {F13.4}
LMP  .CM                                               :pump piston position {F13.4}
PEXB .PSI                                              :piston extend pressure {F13.4}
PREB .PSI                                              :piston retract pressure {F13.4}
PVTT .DEGF                                             :pump chamber temperature {F13.4}
DDV  .C3                                               :drawdown volume {F13.4}
PVTV .C3                                               :PVT volume {F13.4}
PTV  .C3                                               :pt_vol for rci {F13.4}
BUQC .P/MN                                             :build-up quality curve {F13.4}
RTLQC.                                                 :Delta rtdql/delta time {F13.4}
RTKQC.                                                 :Delta rtdqk/delta time {F13.4}
PLCOR.PSI                                              :apqk depth corrected {F13.4}
CPTV .C3                                               :Cumulative pump-through volume {F13.4}
TEN  .LBF                                              :differential tension {F13.4}
CHT4 .LBF                                              :cable head tension {F13.4}
CHT  .LBF                                              :cable head tension {F13.4}
TTEN .LBF                                              :total tension {F13.4}
TTIM .S                                                :  3.000000 s frame 1 time {F13.4}
CMOSS.J.                                               :Clausius-Mossotti Refractive Index {F13.4}
FLCH2.J.                                               :Flourescence channel 2 (475 nm) {F13.4}
FLCH3.J.                                               :Flourescence channel 3 (525 nm) {F13.4}
FLCH4.J.                                               :Flourescence channel 4 (575 nm) {F13.4}
FLCH5.J.                                               :Flourescence channel 5 (632 nm) {F13.4}
FLCH6.J.                                               :Flourescence channel 6 (694 nm) {F13.4}
GASF.J.                                                :Gas Fraction {F13.4}
M1.J .                                                 :1670 nanometer optical density {F13.4}
M2.J .                                                 :1682 nanometer optical density {F13.4}
MUDF.J.                                                :Mud Fraction {F13.4}
NACL.J.PPM                                             :NaCl Concentration {F13.4}
OD1.J.                                                 :Optical Density, Channel 1 {F13.4}
OD10.J.                                                :Optical Density, Channel 10 {F13.4}
OD11.J.                                                :Optical Density, Channel 11 {F13.4}
OD12.J.                                                :Optical Density, Channel 12 {F13.4}
OD13.J.                                                :Optical Density, Channel 13 {F13.4}
OD14.J.                                                :Optical Density, Channel 14 {F13.4}
OD15.J.                                                :Optical Density, Channel 15 {F13.4}
OD16.J.                                                :Optical Density, Channel 16 {F13.4}
OD17.J.                                                :Optical Density, Channel 17 {F13.4}
OD18.J.                                                :Optical Density, Channel 18 {F13.4}
OD19.J.                                                :Optical Density, Channel 19 {F13.4}
OD2.J.                                                 :Optical Density, Channel 2 {F13.4}
OD20.J.                                                :Optical Density, Channel 20 {F13.4}
OD21.J.                                                :Optical Density, Channel 21 {F13.4}
OD22.J.                                                :Optical Density, Channel 22 {F13.4}
OD23.J.                                                :Optical Density, Channel 23 {F13.4}
OD3.J.                                                 :Optical Density, Channel 3 {F13.4}
OD4.J.                                                 :Optical Density, Channel 4 {F13.4}
OD5.J.                                                 :Optical Density, Channel 5 {F13.4}
OD6.J.                                                 :Optical Density, Channel 6 {F13.4}
OD7.J.                                                 :Optical Density, Channel 7 {F13.4}
OD8.J.                                                 :Optical Density, Channel 8 {F13.4}
OD9.J.                                                 :Optical Density, Channel 9 {F13.4}
OILF.J.                                                :Oil Fraction {F13.4}
REFRI.J.                                               :Refractive index, 1740 nm {F13.4}
WTRF.J.                                                :Water Fraction {F13.4}
#-----------------------------------------------------------------------------
#
#     TTIM        TIME         SEC          MIN          ESEC            EMIN            EHR             HHMMSS          BIT         DEPTH         WTBH         WRM          APGC         RTDC         ECLP         FPAD         RPAD        RCPERM       RCRES         APQL        ONESB        TENSB        DECSB        HNDSB         DPTL        RTDQL         PEXR         PRER         PSCR         PTVR         LMP          PEXB         PREB         PVTT         DDV          PVTV         PTV          BUQC        RTLQC        RTKQC        PLCOR         CPTV         TEN          CHT4         CHT          TTEN         TTIM       CMOSS.J      FLCH2.J      FLCH3.J      FLCH4.J      FLCH5.J      FLCH6.J       GASF.J        M1.J         M2.J        MUDF.J       NACL.J       OD1.J        OD10.J       OD11.J       OD12.J       OD13.J       OD14.J       OD15.J       OD16.J       OD17.J       OD18.J       OD19.J       OD2.J        OD20.J       OD21.J       OD22.J       OD23.J       OD3.J        OD4.J        OD5.J        OD6.J        OD7.J        OD8.J        OD9.J        OILF.J      REFRI.J       WTRF.J
#
~Ascii | Curve
# ...
     176.0  176000.0000     176.0000       2.9334         56          2          0     224230       8.5000    2853.5259     454.8964      42.3295     163.0000     221.0000    2845.0000    2840.0000       0.0000      78.0000       0.3227    1404.4169       4.4169       4.4169       0.4169       0.0168      12.7163     160.5961      88.0000       0.0000       4.0000    1999.9996      12.6954    1867.0000       0.0000     155.3000       0.0000       0.0000       0.0000      -0.1045       0.1595       0.1595    1407.2732       0.0000     -20.8741   -2603.4497   -2603.4497    2670.4451     176.0000       0.9022    3335.7442    1573.1443    1889.6833    1980.4827    1128.5686       0.0000       4.0036       4.7370       1.0000 -999999.9999       4.0367       5.9138       5.0528       4.9154       4.9817       5.1174       4.6551       5.5835       4.2739       4.0036       4.7370       5.7691       4.9114       4.1335      -0.0156       0.6153       4.5577       4.7569       4.8337       5.2006       5.5904       5.3709       4.8028       0.0000       5.3621       0.0000
     177.0  177000.0000     177.0000       2.9501         57          2          0     224231       8.5000    2853.5259     454.8964      42.3483     163.0000     220.8200    2845.0000    2845.0000       0.0000      78.0000       0.3224    1404.4243       4.4243       4.4243       0.4243       0.0243      12.4159     160.5987      83.0000       4.0000       4.0000    1999.9996      12.6866    1872.0000       0.0000     155.4800       0.0000       0.0000       0.0000      -0.1906       0.1588       0.1588    1407.2806       0.0000      -1.5157   -2662.9951   -2662.9951    2689.7971     177.0000       0.9063    3423.2695    1578.6715    1912.2152    1920.2046    1127.0261       0.0000       4.0036       4.7370       1.0000 -999999.9999       4.0367       5.9138       5.0528       4.9154       4.9817       5.1174       4.6551       5.5835       4.2739       4.0036       4.7370       5.7691       4.9114       4.1335      -0.0156       0.6153       4.5577       4.7569       4.8337       5.2006       5.5904       5.3709       4.8028       0.0000       5.4795       0.0000
     178.0  178000.0000     178.0000       2.9667         58          2          0     224232       8.5000    2853.5259     454.8964      42.2508     172.0000     221.5400    2840.0000    2840.0000       0.0000      78.0000       0.3295    1403.6697       3.6697       3.6697       0.6697       0.0697      12.0974     160.6015      73.0000       0.0000       4.0000    1999.9996      12.6917       0.0000       0.0000     154.9400       0.0000       0.0000       0.0000      -0.4723       0.1593       0.1593    1406.5260       0.0000      11.8191   -2586.2175   -2586.2175    2703.1880     178.0000       0.9063    3437.1012    1663.4248    1975.5802    1861.7661    1130.5420       0.0000       4.0846       4.7006       1.0000 -999999.9999       3.8676       5.6428       5.2622       5.0365       4.9137       5.0455       4.6910       5.3367       4.3680       4.0846       4.7006       5.3090       4.9221       4.0402      -0.0420       0.6153       4.6541       5.2493       4.8895       5.1742       5.4507       5.2821       5.0284       0.0000       5.4795       0.0000
     179.0  179000.0000     179.0000       2.9834         59          2          0     224233       8.5000    2853.5259     454.8964      42.2594     165.0000     221.3600    2850.0000    2845.0000       0.0000      78.0000       0.3132    1401.1692       1.1692       1.1692       0.1692       0.0692      11.7698     160.6042      78.0000       0.0000       4.0000    1999.9996      12.6901       0.0000       0.0000     155.1200       0.0000       0.0000       0.0000      -4.4218       0.1604       0.1604    1404.0255       0.0000       0.8330   -2593.2942   -2593.2942    2692.2615     179.0000       0.9063    3450.9329    1748.1782    2038.9453    1803.3276    1134.0579       0.0000       4.1656       4.6642       1.0000 -999999.9999       3.6985       5.3719       5.4717       5.1575       4.8456       4.9736       4.7269       5.0899       4.4622       4.1656       4.6642       4.8489       4.9328       3.9469      -0.0684       0.6152       4.7505       5.7416       4.9453       5.1478       5.3110       5.1933       5.2539       0.0000       5.4795       0.0000
     180.0  180000.0000     180.0000       3.0001          0          3          0     224234       8.5000    2853.5259     454.8964      42.2485     163.0000     221.3600    2845.0000    2845.0000       0.0000      78.0000       0.3182    1401.0653       1.0653       1.0653       0.0653       0.0653      19.5388     160.6067      78.0000       0.0000       4.0000    1999.9996      12.6921       0.0000       0.0000     155.3000       0.0000       0.0000       0.0000      -8.8582       0.1594       0.1594    1403.9216       0.0000      -9.9890   -2616.2012   -2616.2012    2681.3535     180.0000       0.9063    3464.7646    1832.9315    2102.3103    1744.8892    1137.5737       0.0000       4.2466       4.6278       1.0000 -999999.9999       3.5293       5.1009       5.6811       5.2786       4.7776       4.9018       4.7628       4.8431       4.5564       4.2466       4.6278       4.3888       4.9436       3.8536      -0.0948       0.6152       4.8469       6.2340       5.0012       5.1214       5.1713       5.1046       5.4795       0.0000       5.4795       0.0000
     181.0  181000.0000     181.0000       3.0167          1          3          0     224235       8.5000    2853.5259     454.8964      42.2557     164.0000     221.9000    2850.0000    2850.0000       0.0000      78.0000       0.3147    1401.0996       1.0996       1.0996       0.0996       0.0996      35.3726     160.6094      73.0000       4.0000       4.0000    1999.9996      12.6912       0.0000       0.0000     155.4800       0.0000       0.0000       0.0000     -12.5680       0.1582       0.1582    1403.9559       0.0000      -2.8585   -2617.9717   -2617.9717    2688.4858     181.0000       0.9028    3399.6149    1797.6005    2063.4872    1834.6917    1122.4106       0.0000       4.1786       4.3981       1.0000 -999999.9999       4.0318       5.1624       5.8818       5.3905       5.1789       5.0963       4.9311       4.8305       4.9161       4.1786       4.3981       4.4711       6.6290       3.8815       0.0642       0.6152       4.7389       5.6982       5.0400       5.4131       5.2523       5.1933       5.4092       0.0000       5.3791       0.0000
     182.0  182000.0000     182.0000       3.0334          2          3          0     224236       8.5000    2853.5259     454.8964      42.2855     164.0000     221.9000    2855.0000    2830.0000       0.0000      78.0000       0.3164    1401.1575       1.1575       1.1575       0.1575       0.0574      49.7281     160.6119      78.0000       0.0000       4.0000    1999.9996      12.6891       0.0000       0.0000     154.7600       0.0000       0.0000       0.0000     -15.4811       0.1589       0.1589    1404.0138       0.0000     -10.1128   -2604.7744   -2604.7744    2681.1367     182.0000       0.8994    3334.4652    1762.2694    2024.6641    1924.4943    1107.2475       0.0000       4.1105       4.1683       1.0000 -999999.9999       4.5342       5.2239       6.0825       5.5024       5.5803       5.2908       5.0995       4.8179       5.2758       4.1105       4.1683       4.5533       8.3145       3.9093       0.2232       0.6151       4.6309       5.1624       5.0788       5.7048       5.3333       5.2821       5.3389       0.0000       5.2787       0.0000
     183.0  183000.0000     183.0000       3.0501          3          3          0     224237       8.5000    2853.5259     454.8964      42.2789     160.0000     221.9000    2835.0000    2845.0000       0.0000      78.0000       0.3168    1401.2231       1.2231       1.2231       0.2231       0.0231      63.4841     160.6144      78.0000       0.0000       4.0000    1999.9996      12.6853       0.0000       0.0000     155.3000       0.0000       0.0000       0.0000     -17.5858       0.1572       0.1572    1404.0795       0.0000       3.0733   -2653.6055   -2653.6055    2694.2852     183.0000       0.8959    3269.3154    1726.9384    1985.8409    2014.2969    1092.0844       0.0000       4.0425       3.9386       1.0000 -999999.9999       5.0367       5.2854       6.2832       5.6144       5.9817       5.4853       5.2679       4.8053       5.6356       4.0425       3.9386       4.6355      10.0000       3.9371       0.3823       0.6151       4.5229       4.6266       5.1176       5.9965       5.4143       5.3708       5.2686       0.0000       5.1784       0.0000
