~VERSION INFORMATION
VERS.           3.0   :CWLS Log ASCII Standard - VERSION 3.0
WRAP.           NO    :One Line per depth step
DLM.          SPACE   :Column Data Section Delimiter Character
PROD.  Schlumberger   :LAS Producer
PROG.  DLIS to ASCII 2.3                               :LAS Program name and version
CREA.        2019/12/12 08:42                          :LAS Creation date {YYYY/MM/DD hh:mm}
DLIS_CREA.  2010-Jan-21 21:56                          :DLIS Creation date and time {YYYY-MMM-DD hh:mm}
SOURCE.     RCI_k800g35.dlis                           :DLIS File Name
FILE-ID.     BATLAS.001                                :File Identification Number
#--------------------------------------------------
~WELL INFORMATION
#MNEM.UNIT      DATA             DESCRIPTION
#---- ------ --------------   -----------------------------
STRT .S            0.0       :START TIME
STOP .S          228.0       :STOP DEPTH
STEP .S            1.0       :STEP
NULL .          -999.25      :NULL VALUE
COMP .        ECOPETROL                                :COMPANY
WELL .        HECHICERA-1                              :WELL
FLD  .        CANO SUR                                 :FIELD
LOC  .                                                 :LOCATION
CNTY .                                                 :COUNTY
STAT .                                                 :STATE
CTRY .                                                 :COUNTRY
API  .                                                 :API NUMBER
UWI  .                                                 :UNIQUE WELL ID
DATE .                                                 :LOG DATE
SRVC .        ATLAS                                    :SERVICE COMPANY
LATI .DEG                                              :LATITUDE
LONG .DEG                                              :LONGITUDE
GDAT .                                                 :GeoDetic Datum
#-----------------------------------------------------------------------------
~PARAMETER INFORMATION
#MNEM.UNIT    VALUE                      DESCRIPTION
#---- -----   --------------------       ------------------------
RUN  .                                   :RUN NUMBER
PDAT .                                   :Permanent Datum
EPD  .                                   :Elevation of Permanent Datum above Mean Sea Level
LMF  .                                   :Logging Measured From (Name of Logging Elevation Reference)
APD  .                                   :Elevation of Depth Reference (LMF) above Permanent Datum
#-----------------------------------------------------------------------------
~CURVE INFORMATION
#MNEM.UNIT   API CODE                                  DESCRIPTION
#---- -----  --------                                  -----------------------
TTIM .S                                                :TIME {F10.1}
TIME .MS                                               :system time since record start {F13.4}
SEC  .S                                                :time in seconds {F13.4}
MIN  .MN                                               :time in minutes {F13.4}
ESEC .S                                                :Remainder of sec curve since RECORD mode started in seconds. {I11}
EMIN .MN                                               :Remainder of sec since RECORD mode started in minutes {I11}
EHR  .HR                                               :Whole hours since RECORD mode started. {I11}
HHMMSS.                                                :hours, minutes, seconds {I11}
BIT  .IN                                               :bit size {F13.4}
DEPTH.F                                                :system depth {F13.4}
WTBH .DEGF                                             :temperature of the borehole {F13.4}
WRM  .OHMM                                             :mud resistivity {F13.4}
APGC .PSI                                              :1970CB hydraulic system pressure {F13.4}
RTDC .DEGF                                             :1970CA motor temperature {F13.4}
ECLP .PSI                                              :pressure emergency close reservoir {F13.4}
FPAD .PSI                                              :packer extend pressure {F13.4}
RPAD .PSI                                              :packer retract pressure {F13.4}
RCPERM.                                                :Dielectric constant of fluid in R/C sensor {F13.4}
RCRES.OHMM                                             :Resistivity of fluid in R/C sensor {F13.4}
APQL .PSI                                              :1970LB Quartzdyne gauge pressure {F13.4}
ONESB.PSI                                              :Pressure less than 10 {F13.4}
TENSB.PSI                                              :Pressure less than 100.0 {F13.4}
DECSB.PSI                                              :Pressure less than 1.0 {F13.4}
HNDSB.PSI                                              :Pressure less than 0.1 {F13.4}
DPTL .P/MN                                             :1970LB differential pressure {F13.4}
RTDQL.DEGF                                             :1970LA Quartzdyne pressure gauge temperature {F13.4}
PEXR .PSI                                              :1970RB Pump Extend Pressure {F13.4}
PRER .PSI                                              :1970RB Pump Retracted Pressure {F13.4}
PSCR .                                                 :1970RB Pump Strokes Count {F13.4}
PTVR .C3                                               :1970RB Pumped volume {F13.4}
LMP  .CM                                               :pump piston position {F13.4}
PEXB .PSI                                              :piston extend pressure {F13.4}
PREB .PSI                                              :piston retract pressure {F13.4}
PVTT .DEGF                                             :pump chamber temperature {F13.4}
DDV  .C3                                               :drawdown volume {F13.4}
PVTV .C3                                               :PVT volume {F13.4}
PTV  .C3                                               :pt_vol for rci {F13.4}
BUQC .P/MN                                             :build-up quality curve {F13.4}
RTLQC.                                                 :Delta rtdql/delta time {F13.4}
RTKQC.                                                 :Delta rtdqk/delta time {F13.4}
PLCOR.PSI                                              :apqk depth corrected {F13.4}
CPTV .C3                                               :Cumulative pump-through volume {F13.4}
TEN  .LBF                                              :differential tension {F13.4}
CHT4 .LBF                                              :cable head tension {F13.4}
CHT  .LBF                                              :cable head tension {F13.4}
TTEN .LBF                                              :total tension {F13.4}
TTIM .S                                                :  3.000000 s frame 1 time {F13.4}
CMOSS.J.                                               :Clausius-Mossotti Refractive Index {F13.4}
FLCH2.J.                                               :Flourescence channel 2 (475 nm) {F13.4}
FLCH3.J.                                               :Flourescence channel 3 (525 nm) {F13.4}
FLCH4.J.                                               :Flourescence channel 4 (575 nm) {F13.4}
FLCH5.J.                                               :Flourescence channel 5 (632 nm) {F13.4}
FLCH6.J.                                               :Flourescence channel 6 (694 nm) {F13.4}
GASF.J.                                                :Gas Fraction {F13.4}
M1.J .                                                 :1670 nanometer optical density {F13.4}
M2.J .                                                 :1682 nanometer optical density {F13.4}
MUDF.J.                                                :Mud Fraction {F13.4}
NACL.J.PPM                                             :NaCl Concentration {F13.4}
OD1.J.                                                 :Optical Density, Channel 1 {F13.4}
OD10.J.                                                :Optical Density, Channel 10 {F13.4}
OD11.J.                                                :Optical Density, Channel 11 {F13.4}
OD12.J.                                                :Optical Density, Channel 12 {F13.4}
OD13.J.                                                :Optical Density, Channel 13 {F13.4}
OD14.J.                                                :Optical Density, Channel 14 {F13.4}
OD15.J.                                                :Optical Density, Channel 15 {F13.4}
OD16.J.                                                :Optical Density, Channel 16 {F13.4}
OD17.J.                                                :Optical Density, Channel 17 {F13.4}
OD18.J.                                                :Optical Density, Channel 18 {F13.4}
OD19.J.                                                :Optical Density, Channel 19 {F13.4}
OD2.J.                                                 :Optical Density, Channel 2 {F13.4}
OD20.J.                                                :Optical Density, Channel 20 {F13.4}
OD21.J.                                                :Optical Density, Channel 21 {F13.4}
OD22.J.                                                :Optical Density, Channel 22 {F13.4}
OD23.J.                                                :Optical Density, Channel 23 {F13.4}
OD3.J.                                                 :Optical Density, Channel 3 {F13.4}
OD4.J.                                                 :Optical Density, Channel 4 {F13.4}
OD5.J.                                                 :Optical Density, Channel 5 {F13.4}
OD6.J.                                                 :Optical Density, Channel 6 {F13.4}
OD7.J.                                                 :Optical Density, Channel 7 {F13.4}
OD8.J.                                                 :Optical Density, Channel 8 {F13.4}
OD9.J.                                                 :Optical Density, Channel 9 {F13.4}
OILF.J.                                                :Oil Fraction {F13.4}
REFRI.J.                                               :Refractive index, 1740 nm {F13.4}
WTRF.J.                                                :Water Fraction {F13.4}
#-----------------------------------------------------------------------------
#
#     TTIM        TIME         SEC          MIN          ESEC            EMIN            EHR             HHMMSS          BIT         DEPTH         WTBH         WRM          APGC         RTDC         ECLP         FPAD         RPAD        RCPERM       RCRES         APQL        ONESB        TENSB        DECSB        HNDSB         DPTL        RTDQL         PEXR         PRER         PSCR         PTVR         LMP          PEXB         PREB         PVTT         DDV          PVTV         PTV          BUQC        RTLQC        RTKQC        PLCOR         CPTV         TEN          CHT4         CHT          TTEN         TTIM       CMOSS.J      FLCH2.J      FLCH3.J      FLCH4.J      FLCH5.J      FLCH6.J       GASF.J        M1.J         M2.J        MUDF.J       NACL.J       OD1.J        OD10.J       OD11.J       OD12.J       OD13.J       OD14.J       OD15.J       OD16.J       OD17.J       OD18.J       OD19.J       OD2.J        OD20.J       OD21.J       OD22.J       OD23.J       OD3.J        OD4.J        OD5.J        OD6.J        OD7.J        OD8.J        OD9.J        OILF.J      REFRI.J       WTRF.J
#
~Ascii | Curve
# ...
     192.0  192000.0000     192.0000       3.2001         12          3          0     224246       8.5000    2853.5259     454.8964      42.2787    2714.0000     221.9000    2874.0000    2845.0000       0.0000      78.0000       0.3164    1384.2615       4.2615      84.2615       0.2615       0.0615       0.6040     160.6376      97.0000       9.0000       4.0000    1999.9996      12.6885       0.0000       0.0000     155.3000       0.0061       0.0000       0.0000     -65.3892       0.1552       0.1552    1387.1178       0.0000      -9.4630   -2536.4004   -2536.4004    2681.1367     192.0000       0.8969    2354.8064    2253.4858    1732.8966    1703.4980    1031.5458       0.0000       4.4337       3.9799       1.0000 -999999.9999       4.0988       6.0387       5.1370       6.0914      10.0000       4.5913       4.6881       4.4865       4.4051       4.4337       3.9799       4.3852       4.6957       3.8324       0.8594       0.6151       5.1363       5.6319       4.7544       6.5985       4.8914       5.1230       5.4795       0.0000       5.2064       0.0000
     193.0  193000.0000     193.0000       3.2167         13          3          0     224247       8.5000    2853.5259     454.8964      42.2457    2714.0000     222.4400    2874.0000    2835.0000       0.0000      78.0000       0.3165    1385.2197       5.2197      85.2197       0.2197       0.0197       0.4447     160.6399      92.0000       9.0000       4.0000    1999.9996      12.6932       0.0000       0.0000     155.3000       0.0061       0.0000       0.0000     -75.9301       0.1544       0.1544    1388.0760       0.0000      -9.3715   -2578.9700   -2578.9700    2681.1367     193.0000       0.8985    2499.6000    2362.0741    1757.7842    1608.4195    1004.8269       0.0000       4.4337       3.9799       1.0000 -999999.9999       4.0988       6.0387       5.1370       6.0914      10.0000       4.5913       4.6881       4.4865       4.4051       4.4337       3.9799       4.3852       4.6957       3.8324       0.8594       0.6151       5.1363       5.6319       4.7544       6.5985       4.8914       5.1230       5.4795       0.0000       5.2513       0.0000
     194.0  194000.0000     194.0000       3.2334         14          3          0     224248       8.5000    2853.5259     454.8964      42.3217     168.0000     221.9000    2864.0000    2835.0000       0.0000      78.0000       0.3094    1387.0385       7.0385      87.0385       0.0385       0.0384       0.2329     160.6426      73.0000       0.0000       4.0000    1999.9996      12.6911       0.0000       0.0000     155.3000       0.0011       0.0000       0.0000     -83.8640       0.1527       0.1527    1389.8948       0.0000      -7.9696   -2515.5261   -2515.5261    2682.4480     194.0000       0.9001    2644.3936    2470.6624    1782.6718    1513.3409     978.1080       0.0000       4.4337       3.9799       1.0000 -999999.9999       4.0988       6.0387       5.1370       6.0914      10.0000       4.5913       4.6881       4.4865       4.4051       4.4337       3.9799       4.3852       4.6957       3.8324       0.8594       0.6151       5.1363       5.6319       4.7544       6.5985       4.8914       5.1230       5.4795       0.0000       5.2963       0.0000
     195.0  195000.0000     195.0000       3.2501         15          3          0     224249       8.5000    2853.5259     454.8964      42.2371     129.0000     222.2600    2820.0000    2791.0000       0.0000      78.0000       0.2988    1381.9259       1.9259      81.9259       0.9259       0.0259       5.8819     160.6448      48.0000       0.0000       4.0000    1999.9996      12.2306       0.0000     112.0000     155.4800       1.1070       0.0000       0.0000     -91.5681       0.1503       0.1503    1384.7822       0.0000       1.5788   -2629.0618   -2629.0618    2692.0447     195.0000       0.9017    2789.1873    2579.2507    1807.5593    1418.2623     951.3890       0.0000       4.4337       3.9799       1.0000 -999999.9999       4.0988       6.0387       5.1370       6.0914      10.0000       4.5913       4.6881       4.4865       4.4051       4.4337       3.9799       4.3852       4.6957       3.8324       0.8594       0.6151       5.1363       5.6319       4.7544       6.5985       4.8914       5.1230       5.4795       0.0000       5.3412       0.0000
     196.0  196000.0000     196.0000       3.2667         16          3          0     224250       8.5000    2853.5259     454.8964      42.1512      32.0000     221.5400    2806.0000    2786.0000       0.0000      78.0000       0.2977    1395.1267       5.1267      95.1267       0.1267       0.0267      22.2100     160.6473      48.0000       0.0000       4.0000    1999.9996       9.2605       0.0000      34.0000     155.3000       8.2322       0.0000       0.0000     -88.7559       0.1483       0.1483    1397.9830       0.0000     -10.2976   -2529.4185   -2529.4185    2680.0422     196.0000       0.9017    2960.3102    2620.3509    1919.2343    1329.9688     951.1734       0.0000       4.3175       4.0803       1.0000 -999999.9999       3.8071       5.7206       5.0652       6.0914       8.1339       4.7567       4.7962       4.6191       4.4971       4.3175       4.0803       4.4264       4.5954       3.7907       0.5413       0.6143       5.0359       5.3332       4.7406       6.1971       4.9330       5.1849       5.3791       0.0000       5.3412       0.0000
     197.0  197000.0000     197.0000       3.2834         17          3          0     224251       8.5000    2853.5259     454.8964      42.2645     167.0000     220.6400    2850.0000    2830.0000       0.0000      78.0000       0.3245    1401.3021       1.3021       1.3021       0.3021       0.0021      36.8344     160.6498      78.0000       0.0000       4.0000    1999.9996       8.2339       0.0000       4.0000     155.4800      10.6950       0.0000       0.0000     -70.0494       0.1467       0.1467    1404.1584       0.0000      -1.8660   -2550.5154   -2550.5154    2688.4858     197.0000       0.9017    3131.4332    2661.4511    2030.9093    1241.6753     950.9578       0.0000       4.2013       4.1806       1.0000 -999999.9999       3.5154       5.4025       4.9933       6.0914       6.2679       4.9220       4.9044       4.7518       4.5892       4.2013       4.1806       4.4677       4.4950       3.7491       0.2232       0.6136       4.9355       5.0344       4.7268       5.7957       4.9746       5.2467       5.2787       0.0000       5.3412       0.0000
     198.0  198000.0000     198.0000       3.3001         18          3          0     224252       8.5000    2853.5259     454.8964      42.2432     169.0000     221.1800    2879.0000    2835.0000       0.0000      78.0000       0.3145    1401.4194       1.4194       1.4194       0.4194       0.0194      50.7422     160.6521      78.0000       4.0000       4.0000    1999.9996       8.2336       0.0000       4.0000     155.4800      10.6956       0.0000       0.0000     -47.4226       0.1463       0.1463    1404.2758       0.0000      -5.3479   -2589.3196   -2589.3196    2684.9307     198.0000       0.9017    3302.5562    2702.5513    2142.5842    1153.3817     950.7421       0.0000       4.0852       4.2809       1.0000 -999999.9999       3.2237       5.0844       4.9214       6.0914       4.4018       5.0873       5.0126       4.8844       4.6812       4.0852       4.2809       4.5089       4.3947       3.7074      -0.0949       0.6129       4.8352       4.7356       4.7130       5.3944       5.0163       5.3086       5.1784       0.0000       5.3412       0.0000
     199.0  199000.0000     199.0000       3.3167         19          3          0     224253       8.5000    2853.5259     454.8964      42.1104     172.0000     220.6400    2855.0000    2835.0000       0.0000      78.0000       0.3152    1401.4751       1.4751       1.4751       0.4751       0.0751      63.3609     160.6551      78.0000       0.0000       4.0000    1999.9996       8.2323       0.0000       0.0000     155.1200      10.6988       0.0000       0.0000     -24.6239       0.1472       0.1472    1404.3314       0.0000      -7.8354   -2552.8865   -2552.8865    2682.4480     199.0000       0.8922    3219.8337    2686.2808    2267.8364    1143.9900     910.2184       0.0000       4.1464       4.2962       1.0000 -999999.9999       3.6690       5.1431       5.1159       5.6994       4.6104       5.0022       5.1980       4.7915       4.5070       4.1464       4.2962       4.4405       4.5669       4.2901       0.0081       0.6136       5.1611       4.9092       5.1188       5.4360       4.9746       5.2406       5.0224       0.0000       5.1108       0.0000
