~VERSION INFORMATION
VERS.           3.0   :CWLS Log ASCII Standard - VERSION 3.0
WRAP.           NO    :One Line per depth step
DLM.          SPACE   :Column Data Section Delimiter Character
PROD.  Schlumberger   :LAS Producer
PROG.  DLIS to ASCII 2.3                               :LAS Program name and version
CREA.        2019/12/12 08:42                          :LAS Creation date {YYYY/MM/DD hh:mm}
DLIS_CREA.  2010-Jan-21 21:56                          :DLIS Creation date and time {YYYY-MMM-DD hh:mm}
SOURCE.     RCI_k800g35.dlis                           :DLIS File Name
FILE-ID.     BATLAS.001                                :File Identification Number
#--------------------------------------------------
~WELL INFORMATION
#MNEM.UNIT      DATA             DESCRIPTION
#---- ------ --------------   -----------------------------
STRT .S            0.0       :START TIME
STOP .S          228.0       :STOP DEPTH
STEP .S            1.0       :STEP
NULL .          -999.25      :NULL VALUE
COMP .        ECOPETROL                                :COMPANY
WELL .        HECHICERA-1                              :WELL
FLD  .        CANO SUR                                 :FIELD
LOC  .                                                 :LOCATION
CNTY .                                                 :COUNTY
STAT .                                                 :STATE
CTRY .                                                 :COUNTRY
API  .                                                 :API NUMBER
UWI  .                                                 :UNIQUE WELL ID
DATE .                                                 :LOG DATE
SRVC .        ATLAS                                    :SERVICE COMPANY
LATI .DEG                                              :LATITUDE
LONG .DEG                                              :LONGITUDE
GDAT .                                                 :GeoDetic Datum
#-----------------------------------------------------------------------------
~PARAMETER INFORMATION
#MNEM.UNIT    VALUE                      DESCRIPTION
#---- -----   --------------------       ------------------------
RUN  .                                   :RUN NUMBER
PDAT .                                   :Permanent Datum
EPD  .                                   :Elevation of Permanent Datum above Mean Sea Level
LMF  .                                   :Logging Measured From (Name of Logging Elevation Reference)
APD  .                                   :Elevation of Depth Reference (LMF) above Permanent Datum
#-----------------------------------------------------------------------------
~CURVE INFORMATION
#MNEM.UNIT   API CODE                                  DESCRIPTION
#---- -----  --------                                  -----------------------
TTIM .S                                                :TIME {F10.1}
TIME .MS                                               :system time since record start {F13.4}
SEC  .S                                                :time in seconds {F13.4}
MIN  .MN                                               :time in minutes {F13.4}
ESEC .S                                                :Remainder of sec curve since RECORD mode started in seconds. {I11}
EMIN .MN                                               :Remainder of sec since RECORD mode started in minutes {I11}
EHR  .HR                                               :Whole hours since RECORD mode started. {I11}
HHMMSS.                                                :hours, minutes, seconds {I11}
BIT  .IN                                               :bit size {F13.4}
DEPTH.F                                                :system depth {F13.4}
WTBH .DEGF                                             :temperature of the borehole {F13.4}
WRM  .OHMM                                             :mud resistivity {F13.4}
APGC .PSI                                              :1970CB hydraulic system pressure {F13.4}
RTDC .DEGF                                             :1970CA motor temperature {F13.4}
ECLP .PSI                                              :pressure emergency close reservoir {F13.4}
FPAD .PSI                                              :packer extend pressure {F13.4}
RPAD .PSI                                              :packer retract pressure {F13.4}
RCPERM.                                                :Dielectric constant of fluid in R/C sensor {F13.4}
RCRES.OHMM                                             :Resistivity of fluid in R/C sensor {F13.4}
APQL .PSI                                              :1970LB Quartzdyne gauge pressure {F13.4}
ONESB.PSI                                              :Pressure less than 10 {F13.4}
TENSB.PSI                                              :Pressure less than 100.0 {F13.4}
DECSB.PSI                                              :Pressure less than 1.0 {F13.4}
HNDSB.PSI                                              :Pressure less than 0.1 {F13.4}
DPTL .P/MN                                             :1970LB differential pressure {F13.4}
RTDQL.DEGF                                             :1970LA Quartzdyne pressure gauge temperature {F13.4}
PEXR .PSI                                              :1970RB Pump Extend Pressure {F13.4}
PRER .PSI                                              :1970RB Pump Retracted Pressure {F13.4}
PSCR .                                                 :1970RB Pump Strokes Count {F13.4}
PTVR .C3                                               :1970RB Pumped volume {F13.4}
LMP  .CM                                               :pump piston position {F13.4}
PEXB .PSI                                              :piston extend pressure {F13.4}
PREB .PSI                                              :piston retract pressure {F13.4}
PVTT .DEGF                                             :pump chamber temperature {F13.4}
DDV  .C3                                               :drawdown volume {F13.4}
PVTV .C3                                               :PVT volume {F13.4}
PTV  .C3                                               :pt_vol for rci {F13.4}
BUQC .P/MN                                             :build-up quality curve {F13.4}
RTLQC.                                                 :Delta rtdql/delta time {F13.4}
RTKQC.                                                 :Delta rtdqk/delta time {F13.4}
PLCOR.PSI                                              :apqk depth corrected {F13.4}
CPTV .C3                                               :Cumulative pump-through volume {F13.4}
TEN  .LBF                                              :differential tension {F13.4}
CHT4 .LBF                                              :cable head tension {F13.4}
CHT  .LBF                                              :cable head tension {F13.4}
TTEN .LBF                                              :total tension {F13.4}
TTIM .S                                                :  3.000000 s frame 1 time {F13.4}
CMOSS.J.                                               :Clausius-Mossotti Refractive Index {F13.4}
FLCH2.J.                                               :Flourescence channel 2 (475 nm) {F13.4}
FLCH3.J.                                               :Flourescence channel 3 (525 nm) {F13.4}
FLCH4.J.                                               :Flourescence channel 4 (575 nm) {F13.4}
FLCH5.J.                                               :Flourescence channel 5 (632 nm) {F13.4}
FLCH6.J.                                               :Flourescence channel 6 (694 nm) {F13.4}
GASF.J.                                                :Gas Fraction {F13.4}
M1.J .                                                 :1670 nanometer optical density {F13.4}
M2.J .                                                 :1682 nanometer optical density {F13.4}
MUDF.J.                                                :Mud Fraction {F13.4}
NACL.J.PPM                                             :NaCl Concentration {F13.4}
OD1.J.                                                 :Optical Density, Channel 1 {F13.4}
OD10.J.                                                :Optical Density, Channel 10 {F13.4}
OD11.J.                                                :Optical Density, Channel 11 {F13.4}
OD12.J.                                                :Optical Density, Channel 12 {F13.4}
OD13.J.                                                :Optical Density, Channel 13 {F13.4}
OD14.J.                                                :Optical Density, Channel 14 {F13.4}
OD15.J.                                                :Optical Density, Channel 15 {F13.4}
OD16.J.                                                :Optical Density, Channel 16 {F13.4}
OD17.J.                                                :Optical Density, Channel 17 {F13.4}
OD18.J.                                                :Optical Density, Channel 18 {F13.4}
OD19.J.                                                :Optical Density, Channel 19 {F13.4}
OD2.J.                                                 :Optical Density, Channel 2 {F13.4}
OD20.J.                                                :Optical Density, Channel 20 {F13.4}
OD21.J.                                                :Optical Density, Channel 21 {F13.4}
OD22.J.                                                :Optical Density, Channel 22 {F13.4}
OD23.J.                                                :Optical Density, Channel 23 {F13.4}
OD3.J.                                                 :Optical Density, Channel 3 {F13.4}
OD4.J.                                                 :Optical Density, Channel 4 {F13.4}
OD5.J.                                                 :Optical Density, Channel 5 {F13.4}
OD6.J.                                                 :Optical Density, Channel 6 {F13.4}
OD7.J.                                                 :Optical Density, Channel 7 {F13.4}
OD8.J.                                                 :Optical Density, Channel 8 {F13.4}
OD9.J.                                                 :Optical Density, Channel 9 {F13.4}
OILF.J.                                                :Oil Fraction {F13.4}
REFRI.J.                                               :Refractive index, 1740 nm {F13.4}
WTRF.J.                                                :Water Fraction {F13.4}
#-----------------------------------------------------------------------------
#
#     TTIM        TIME         SEC          MIN          ESEC            EMIN            EHR             HHMMSS          BIT         DEPTH         WTBH         WRM          APGC         RTDC         ECLP         FPAD         RPAD        RCPERM       RCRES         APQL        ONESB        TENSB        DECSB        HNDSB         DPTL        RTDQL         PEXR         PRER         PSCR         PTVR         LMP          PEXB         PREB         PVTT         DDV          PVTV         PTV          BUQC        RTLQC        RTKQC        PLCOR         CPTV         TEN          CHT4         CHT          TTEN         TTIM       CMOSS.J      FLCH2.J      FLCH3.J      FLCH4.J      FLCH5.J      FLCH6.J       GASF.J        M1.J         M2.J        MUDF.J       NACL.J       OD1.J        OD10.J       OD11.J       OD12.J       OD13.J       OD14.J       OD15.J       OD16.J       OD17.J       OD18.J       OD19.J       OD2.J        OD20.J       OD21.J       OD22.J       OD23.J       OD3.J        OD4.J        OD5.J        OD6.J        OD7.J        OD8.J        OD9.J        OILF.J      REFRI.J       WTRF.J
#
~Ascii | Curve
# ...
      48.0   48000.0000      48.0000       0.8000         48          0          0     224022       8.5000    2853.5259     454.8964      42.2997     168.0000     213.0800    2864.0000       0.0000    2679.0000      78.0000       0.3207    1402.0024       2.0024       2.0024       0.0024       0.0024       0.3215     160.2382       0.0000       0.0000       4.0000    1999.9996      12.6881    1887.0000       0.0000     155.1200       0.0000       0.0000       0.0000       1.1176       0.1753       0.1753    1404.8588       0.0000     -17.8249   -2594.8120   -2594.8120    2688.0269      48.0000       0.8831    2867.2041    1571.7443    2495.6377    1816.9679    1268.5260       0.0000       4.2465       3.9192       1.0000 -999999.9999       3.6106       5.4744       5.2419       5.3927       4.5836       4.9017       4.8207       4.7383       4.4314       4.2465       3.9192       4.3474       4.7564       4.0085       0.2409       0.6173       4.9379       4.7497       4.6188       5.1671       5.0020       5.1045       5.7805       0.0000       4.8641       0.0000
      49.0   49000.0000      49.0000       0.8167         49          0          0     224023       8.5000    2853.5259     454.8964      42.1612     168.0000     213.6200    2855.0000       0.0000    2669.0000      78.0000       0.3217    1401.9982       1.9982       1.9982       0.9982       0.0981       1.4694     160.2412       0.0000       0.0000       4.0000    1999.9996      12.6920    1887.0000       0.0000     155.1200       0.0000       0.0000       0.0000       1.0522       0.1743       0.1743    1404.8545       0.0000     -24.3734   -2629.4324   -2629.4324    2681.3535      49.0000       0.8898    2858.3741    1664.9937    2511.5648    1871.2561    1306.3792       0.0000       4.3205       4.0815       1.0000 -999999.9999       3.6079       5.5622       5.3560       5.2924       4.5621       4.7729       4.8431       4.5661       4.2526       4.3205       4.0815       4.1906       4.9894       4.0646       0.1236       0.6171       4.8792       4.8144       4.9557       5.2846       5.0890       5.1726       5.6478       0.0000       5.0369       0.0000
      50.0   50000.0000      50.0000       0.8334         50          0          0     224024       8.5000    2853.5259     454.8964      42.2980     168.0000     213.9800    2860.0000       0.0000    2669.0000      78.0000       0.3198    1402.0006       2.0006       2.0006       0.0006       0.0006       6.8059     160.2443       0.0000       0.0000       4.0000    1999.9996      12.6905    1896.0000       0.0000     155.4800       0.0000       0.0000       0.0000       0.8269       0.1741       0.1741    1404.8569       0.0000     -35.1506   -2578.0005   -2578.0005    2670.2285      50.0000       0.8965    2849.5441    1758.2432    2527.4919    1925.5442    1344.2323       0.0000       4.3945       4.2437       1.0000 -999999.9999       3.6053       5.6500       5.4702       5.1920       4.5406       4.6441       4.8654       4.3939       4.0739       4.3945       4.2437       4.0337       5.2224       4.1208       0.0062       0.6169       4.8205       4.8792       5.2926       5.4020       5.1760       5.2406       5.5152       0.0000       5.2098       0.0000
      51.0   51000.0000      51.0000       0.8500         51          0          0     224025       8.5000    2853.5259     454.8964      42.3979     169.0000     213.4400    2864.0000       0.0000    2669.0000      78.0000       0.3191    1401.9969       1.9969       1.9969       0.9969       0.0969       9.4396     160.2470       0.0000       0.0000       4.0000    1999.9996      12.6908    1882.0000       0.0000     155.3000       0.0000       0.0000       0.0000       0.5862       0.1745       0.1745    1404.8533       0.0000      -2.7129   -2598.2039   -2598.2039    2702.5122      51.0000       0.9031    2840.7141    1851.4927    2543.4189    1979.8324    1382.0854       0.0000       4.4684       4.4059       1.0000 -999999.9999       3.6026       5.7377       5.5843       5.0917       4.5191       4.5153       4.8877       4.2217       3.8952       4.4684       4.4059       3.8769       5.4554       4.1769      -0.1112       0.6167       4.7618       4.9440       5.6295       5.5194       5.2630       5.3087       5.3826       0.0000       5.3826       0.0000
      52.0   52000.0000      52.0000       0.8667         52          0          0     224026       8.5000    2853.5259     454.8964      42.3235     167.0000     213.9800    2820.0000       0.0000       0.0000      78.0000       0.2992    1401.9749       1.9749       1.9749       0.9749       0.0748      10.5258     160.2501      97.0000      29.0000       4.0000    1999.9996      12.6905    1887.0000       0.0000     155.3000       0.0000       0.0000       0.0000       0.3401       0.1750       0.1750    1404.8312       0.0000     -29.9066   -2514.8840   -2514.8840    2675.0986      52.0000       0.9001    2765.5810    1873.8255    2624.7592    2077.9755    1414.0554       0.0000       4.4684       4.4059       1.0000 -999999.9999       3.6026       5.7377       5.5843       5.0917       4.5191       4.5153       4.8877       4.2217       3.8952       4.4684       4.4059       3.8769       5.4554       4.1769      -0.1112       0.6167       4.7618       4.9440       5.6295       5.5194       5.2630       5.3087       5.3826       0.0000       5.2975       0.0000
      53.0   53000.0000      53.0000       0.8834         53          0          0     224027       8.5000    2853.5259     454.8964      42.3491     174.0000     213.4400    2830.0000       0.0000       0.0000      78.0000       0.2989    1401.9695       1.9695       1.9695       0.9695       0.0695      11.2981     160.2529     102.0000      29.0000       4.0000    1999.9996      12.6918    1882.0000       0.0000     155.1200       0.0000       0.0000       0.0000       0.0744       0.1753       0.1753    1404.8258       0.0000     -23.6334   -2552.5684   -2552.5684    2681.1367      53.0000       0.8970    2690.4478    1896.1583    2706.0994    2176.1186    1446.0253       0.0000       4.4684       4.4059       1.0000 -999999.9999       3.6026       5.7377       5.5843       5.0917       4.5191       4.5153       4.8877       4.2217       3.8952       4.4684       4.4059       3.8769       5.4554       4.1769      -0.1112       0.6167       4.7618       4.9440       5.6295       5.5194       5.2630       5.3087       5.3826       0.0000       5.2124       0.0000
      54.0   54000.0000      54.0000       0.9000         54          0          0     224028       8.5000    2853.5259     454.8964      42.4674      45.0000     214.5200    2811.0000       9.0000       0.0000      78.0000       0.2967    1401.9939       1.9939       1.9939       0.9939       0.0939      10.4132     160.2558      88.0000      19.0000       4.0000    1999.9996      12.6886    1872.0000       0.0000     154.7600       0.0000       0.0000       0.0000      -0.1635       0.1748       0.1748    1404.8502       0.0000     -31.8113   -2497.7827   -2497.7827    2672.6929      54.0000       0.8940    2615.3147    1918.4911    2787.4397    2274.2617    1477.9952       0.0000       4.4684       4.4059       1.0000 -999999.9999       3.6026       5.7377       5.5843       5.0917       4.5191       4.5153       4.8877       4.2217       3.8952       4.4684       4.4059       3.8769       5.4554       4.1769      -0.1112       0.6167       4.7618       4.9440       5.6295       5.5194       5.2630       5.3087       5.3826       0.0000       5.1273       0.0000
      55.0   55000.0000      55.0000       0.9167         55          0          0     224029       8.5000    2853.5259     454.8964      42.1492      73.0000     213.9800    2840.0000      58.0000       0.0000      78.0000       0.2993    1402.0542       2.0542       2.0542       0.0542       0.0542       6.1674     160.2587     117.0000      53.0000       4.0000    1999.9996      12.6900    1906.0000       0.0000     155.1200       0.0000       0.0000       0.0000      -0.2640       0.1750       0.1750    1404.9105       0.0000     -23.0639   -2548.6497   -2548.6497    2681.1367      55.0000       0.8940    2564.0585    1960.9008    2864.7108    2273.6553    1477.4261       0.0000       4.3807       4.3441       1.0000 -999999.9999       3.6035       5.4954       5.5356       5.1657       4.6052       4.7060       5.0297       4.3576       4.1742       4.3807       4.3441       4.0305       5.2299       4.4025       0.0742       0.6168       4.7178       4.9139       5.2449       5.8791       5.1391       5.4190       5.3058       0.0000       5.1273       0.0000
