~VERSION INFORMATION
VERS.           3.0   :CWLS Log ASCII Standard - VERSION 3.0
WRAP.           NO    :One Line per depth step
DLM.          SPACE   :Column Data Section Delimiter Character
PROD.  Schlumberger   :LAS Producer
PROG.  DLIS to ASCII 2.3                               :LAS Program name and version
CREA.        2019/12/12 08:42                          :LAS Creation date {YYYY/MM/DD hh:mm}
DLIS_CREA.  2010-Jan-21 21:56                          :DLIS Creation date and time {YYYY-MMM-DD hh:mm}
SOURCE.     RCI_k800g35.dlis                           :DLIS File Name
FILE-ID.     BATLAS.001                                :File Identification Number
#--------------------------------------------------
~WELL INFORMATION
#MNEM.UNIT      DATA             DESCRIPTION
#---- ------ --------------   -----------------------------
STRT .S            0.0       :START TIME
STOP .S          228.0       :STOP DEPTH
STEP .S            1.0       :STEP
NULL .          -999.25      :NULL VALUE
COMP .        ECOPETROL                                :COMPANY
WELL .        HECHICERA-1                              :WELL
FLD  .        CANO SUR                                 :FIELD
LOC  .                                                 :LOCATION
CNTY .                                                 :COUNTY
STAT .                                                 :STATE
CTRY .                                                 :COUNTRY
API  .                                                 :API NUMBER
UWI  .                                                 :UNIQUE WELL ID
DATE .                                                 :LOG DATE
SRVC .        ATLAS                                    :SERVICE COMPANY
LATI .DEG                                              :LATITUDE
LONG .DEG                                              :LONGITUDE
GDAT .                                                 :GeoDetic Datum
#-----------------------------------------------------------------------------
~PARAMETER INFORMATION
#MNEM.UNIT    VALUE                      DESCRIPTION
#---- -----   --------------------       ------------------------
RUN  .                                   :RUN NUMBER
PDAT .                                   :Permanent Datum
EPD  .                                   :Elevation of Permanent Datum above Mean Sea Level
LMF  .                                   :Logging Measured From (Name of Logging Elevation Reference)
APD  .                                   :Elevation of Depth Reference (LMF) above Permanent Datum
#-----------------------------------------------------------------------------
~CURVE INFORMATION
#MNEM.UNIT   API CODE                                  DESCRIPTION
#---- -----  --------                                  -----------------------
TTIM .S                                                :TIME {F10.1}
TIME .MS                                               :system time since record start {F13.4}
SEC  .S                                                :time in seconds {F13.4}
MIN  .MN                                               :time in minutes {F13.4}
ESEC .S                                                :Remainder of sec curve since RECORD mode started in seconds. {I11}
EMIN .MN                                               :Remainder of sec since RECORD mode started in minutes {I11}
EHR  .HR                                               :Whole hours since RECORD mode started. {I11}
HHMMSS.                                                :hours, minutes, seconds {I11}
BIT  .IN                                               :bit size {F13.4}
DEPTH.F                                                :system depth {F13.4}
WTBH .DEGF                                             :temperature of the borehole {F13.4}
WRM  .OHMM                                             :mud resistivity {F13.4}
APGC .PSI                                              :1970CB hydraulic system pressure {F13.4}
RTDC .DEGF                                             :1970CA motor temperature {F13.4}
ECLP .PSI                                              :pressure emergency close reservoir {F13.4}
FPAD .PSI                                              :packer extend pressure {F13.4}
RPAD .PSI                                              :packer retract pressure {F13.4}
RCPERM.                                                :Dielectric constant of fluid in R/C sensor {F13.4}
RCRES.OHMM                                             :Resistivity of fluid in R/C sensor {F13.4}
APQL .PSI                                              :1970LB Quartzdyne gauge pressure {F13.4}
ONESB.PSI                                              :Pressure less than 10 {F13.4}
TENSB.PSI                                              :Pressure less than 100.0 {F13.4}
DECSB.PSI                                              :Pressure less than 1.0 {F13.4}
HNDSB.PSI                                              :Pressure less than 0.1 {F13.4}
DPTL .P/MN                                             :1970LB differential pressure {F13.4}
RTDQL.DEGF                                             :1970LA Quartzdyne pressure gauge temperature {F13.4}
PEXR .PSI                                              :1970RB Pump Extend Pressure {F13.4}
PRER .PSI                                              :1970RB Pump Retracted Pressure {F13.4}
PSCR .                                                 :1970RB Pump Strokes Count {F13.4}
PTVR .C3                                               :1970RB Pumped volume {F13.4}
LMP  .CM                                               :pump piston position {F13.4}
PEXB .PSI                                              :piston extend pressure {F13.4}
PREB .PSI                                              :piston retract pressure {F13.4}
PVTT .DEGF                                             :pump chamber temperature {F13.4}
DDV  .C3                                               :drawdown volume {F13.4}
PVTV .C3                                               :PVT volume {F13.4}
PTV  .C3                                               :pt_vol for rci {F13.4}
BUQC .P/MN                                             :build-up quality curve {F13.4}
RTLQC.                                                 :Delta rtdql/delta time {F13.4}
RTKQC.                                                 :Delta rtdqk/delta time {F13.4}
PLCOR.PSI                                              :apqk depth corrected {F13.4}
CPTV .C3                                               :Cumulative pump-through volume {F13.4}
TEN  .LBF                                              :differential tension {F13.4}
CHT4 .LBF                                              :cable head tension {F13.4}
CHT  .LBF                                              :cable head tension {F13.4}
TTEN .LBF                                              :total tension {F13.4}
TTIM .S                                                :  3.000000 s frame 1 time {F13.4}
CMOSS.J.                                               :Clausius-Mossotti Refractive Index {F13.4}
FLCH2.J.                                               :Flourescence channel 2 (475 nm) {F13.4}
FLCH3.J.                                               :Flourescence channel 3 (525 nm) {F13.4}
FLCH4.J.                                               :Flourescence channel 4 (575 nm) {F13.4}
FLCH5.J.                                               :Flourescence channel 5 (632 nm) {F13.4}
FLCH6.J.                                               :Flourescence channel 6 (694 nm) {F13.4}
GASF.J.                                                :Gas Fraction {F13.4}
M1.J .                                                 :1670 nanometer optical density {F13.4}
M2.J .                                                 :1682 nanometer optical density {F13.4}
MUDF.J.                                                :Mud Fraction {F13.4}
NACL.J.PPM                                             :NaCl Concentration {F13.4}
OD1.J.                                                 :Optical Density, Channel 1 {F13.4}
OD10.J.                                                :Optical Density, Channel 10 {F13.4}
OD11.J.                                                :Optical Density, Channel 11 {F13.4}
OD12.J.                                                :Optical Density, Channel 12 {F13.4}
OD13.J.                                                :Optical Density, Channel 13 {F13.4}
OD14.J.                                                :Optical Density, Channel 14 {F13.4}
OD15.J.                                                :Optical Density, Channel 15 {F13.4}
OD16.J.                                                :Optical Density, Channel 16 {F13.4}
OD17.J.                                                :Optical Density, Channel 17 {F13.4}
OD18.J.                                                :Optical Density, Channel 18 {F13.4}
OD19.J.                                                :Optical Density, Channel 19 {F13.4}
OD2.J.                                                 :Optical Density, Channel 2 {F13.4}
OD20.J.                                                :Optical Density, Channel 20 {F13.4}
OD21.J.                                                :Optical Density, Channel 21 {F13.4}
OD22.J.                                                :Optical Density, Channel 22 {F13.4}
OD23.J.                                                :Optical Density, Channel 23 {F13.4}
OD3.J.                                                 :Optical Density, Channel 3 {F13.4}
OD4.J.                                                 :Optical Density, Channel 4 {F13.4}
OD5.J.                                                 :Optical Density, Channel 5 {F13.4}
OD6.J.                                                 :Optical Density, Channel 6 {F13.4}
OD7.J.                                                 :Optical Density, Channel 7 {F13.4}
OD8.J.                                                 :Optical Density, Channel 8 {F13.4}
OD9.J.                                                 :Optical Density, Channel 9 {F13.4}
OILF.J.                                                :Oil Fraction {F13.4}
REFRI.J.                                               :Refractive index, 1740 nm {F13.4}
WTRF.J.                                                :Water Fraction {F13.4}
#-----------------------------------------------------------------------------
#
#     TTIM        TIME         SEC          MIN          ESEC            EMIN            EHR             HHMMSS          BIT         DEPTH         WTBH         WRM          APGC         RTDC         ECLP         FPAD         RPAD        RCPERM       RCRES         APQL        ONESB        TENSB        DECSB        HNDSB         DPTL        RTDQL         PEXR         PRER         PSCR         PTVR         LMP          PEXB         PREB         PVTT         DDV          PVTV         PTV          BUQC        RTLQC        RTKQC        PLCOR         CPTV         TEN          CHT4         CHT          TTEN         TTIM       CMOSS.J      FLCH2.J      FLCH3.J      FLCH4.J      FLCH5.J      FLCH6.J       GASF.J        M1.J         M2.J        MUDF.J       NACL.J       OD1.J        OD10.J       OD11.J       OD12.J       OD13.J       OD14.J       OD15.J       OD16.J       OD17.J       OD18.J       OD19.J       OD2.J        OD20.J       OD21.J       OD22.J       OD23.J       OD3.J        OD4.J        OD5.J        OD6.J        OD7.J        OD8.J        OD9.J        OILF.J      REFRI.J       WTRF.J
#
~Ascii | Curve
# ...
     136.0  136000.0000     136.0000       2.2667         16          2          0     224150       8.5000    2853.5259     454.8964      42.3492     157.0000     218.8400    2835.0000    2879.0000       0.0000      78.0000       0.3216    1404.3773       4.3773       4.3773       0.3773       0.0773       0.4342     160.4874      83.0000       4.0000       4.0000    1999.9996      12.6910    1867.0000       0.0000     155.4800       0.0000       0.0000       0.0000       0.9257       0.1718       0.1718    1407.2336       0.0000      -4.0770   -2570.9260   -2570.9260    2689.7971     136.0000       0.8832    2250.7679    1618.5841    1569.3872    1333.5371     589.4163       0.0000       4.3096       3.9432       1.0000 -999999.9999       3.6301       5.0424       5.2427       5.3462       4.6155       5.2600       4.7632       4.3295       6.6890       4.3096       3.9432       4.6184       5.4912       4.1814       0.0615       0.6152       5.4904       4.8166       4.9164       5.4271       6.0163       5.5000       4.9987       0.0000       4.8742       0.0000
     137.0  137000.0000     137.0000       2.2834         17          2          0     224151       8.5000    2853.5259     454.8964      42.3480     153.0000     218.4800    2845.0000    2869.0000       0.0000      78.0000       0.3233    1404.3821       4.3821       4.3821       0.3821       0.0821       0.3846     160.4899      83.0000       4.0000       4.0000    1999.9996      12.6916    1877.0000       0.0000     155.1200       0.0000       0.0000       0.0000       0.8764       0.1720       0.1720    1407.2384       0.0000      -8.6106   -2581.8621   -2581.8621    2685.1475     137.0000       0.8881    2380.0934    1747.9225    1552.8815    1250.9994     631.2923       0.0000       4.2478       3.9671       1.0000 -999999.9999       3.4868       5.2221       5.5640       5.2542       4.9975       5.4607       4.7770       4.3059       8.3445       4.2478       3.9671       4.4930       5.6238       4.1377       0.2178       0.6152       5.0429       4.6780       5.2245       5.7743       6.0163       5.2142       5.2681       0.0000       4.9890       0.0000
     138.0  138000.0000     138.0000       2.3000         18          2          0     224152       8.5000    2853.5259     454.8964      42.3070     154.0000     218.8400    2835.0000    2869.0000       0.0000      78.0000       0.3207    1404.3856       4.3856       4.3856       0.3856       0.0856       0.3410     160.4928      88.0000       4.0000       4.0000    1999.9996      12.6896    1872.0000       0.0000     155.1200       0.0000       0.0000       0.0000       0.7955       0.1711       0.1711    1407.2419       0.0000      10.6338   -2595.0178   -2595.0178    2704.4993     138.0000       0.8930    2509.4189    1877.2609    1536.3757    1168.4618     673.1683       0.0000       4.1859       3.9909       1.0000 -999999.9999       3.3435       5.4019       5.8853       5.1622       5.3795       5.6614       4.7908       4.2824      10.0000       4.1859       3.9909       4.3676       5.7564       4.0939       0.3741       0.6152       4.5955       4.5394       5.5326       6.1214       6.0163       4.9284       5.5374       0.0000       5.1039       0.0000
     139.0  139000.0000     139.0000       2.3167         19          2          0     224153       8.5000    2853.5259     454.8964      42.3142     153.0000     219.0200    2840.0000    2874.0000       0.0000      78.0000       0.3223    1404.3949       4.3949       4.3949       0.3949       0.0949       0.3155     160.4959      83.0000       4.0000       4.0000    1999.9996      12.6931    1872.0000       0.0000     155.1200       0.0000       0.0000       0.0000       0.7019       0.1710       0.1710    1407.2512       0.0000     -11.3767   -2602.6428   -2602.6428    2682.4480     139.0000       0.8964    2506.4438    1939.5595    1550.2828    1158.1533     709.4547       0.0000       4.1859       3.9909       1.0000 -999999.9999       3.3435       5.4019       5.8853       5.1622       5.3795       5.6614       4.7908       4.2824      10.0000       4.1859       3.9909       4.3676       5.7564       4.0939       0.3741       0.6152       4.5955       4.5394       5.5326       6.1214       6.0163       4.9284       5.5374       0.0000       5.1968       0.0000
     140.0  140000.0000     140.0000       2.3334         20          2          0     224154       8.5000    2853.5259     454.8964      42.3714     159.0000     219.3800    2845.0000    2869.0000       0.0000      78.0000       0.3223    1404.4073       4.4073       4.4073       0.4073       0.0073       0.2870     160.4983      83.0000       4.0000       4.0000    1999.9996      12.6904    1872.0000       0.0000     155.4800       0.0000       0.0000       0.0000       0.6299       0.1711       0.1711    1407.2637       0.0000      15.9989   -2609.4189   -2609.4189    2709.8433     140.0000       0.8998    2503.4686    2001.8581    1564.1898    1147.8448     745.7411       0.0000       4.1859       3.9909       1.0000 -999999.9999       3.3435       5.4019       5.8853       5.1622       5.3795       5.6614       4.7908       4.2824      10.0000       4.1859       3.9909       4.3676       5.7564       4.0939       0.3741       0.6152       4.5955       4.5394       5.5326       6.1214       6.0163       4.9284       5.5374       0.0000       5.2897       0.0000
     141.0  141000.0000     141.0000       2.3500         21          2          0     224155       8.5000    2853.5259     454.8964      42.2427     152.0000     218.8400    2835.0000    2869.0000       0.0000      78.0000       0.3233    1404.4131       4.4131       4.4131       0.4131       0.0131       0.2434     160.5012      83.0000       4.0000       4.0000    1999.9996      12.6940    1867.0000       0.0000     155.3000       0.0000       0.0000       0.0000       0.5736       0.1688       0.1688    1407.2694       0.0000     -21.0732   -2559.5674   -2559.5674    2672.6929     141.0000       0.9031    2500.4934    2064.1567    1578.0968    1137.5364     782.0275       0.0000       4.1859       3.9909       1.0000 -999999.9999       3.3435       5.4019       5.8853       5.1622       5.3795       5.6614       4.7908       4.2824      10.0000       4.1859       3.9909       4.3676       5.7564       4.0939       0.3741       0.6152       4.5955       4.5394       5.5326       6.1214       6.0163       4.9284       5.5374       0.0000       5.3826       0.0000
     142.0  142000.0000     142.0000       2.3667         22          2          0     224156       8.5000    2853.5259     454.8964      42.2333     155.0000     218.4800    2840.0000    2869.0000       0.0000      78.0000       0.3241    1404.4119       4.4119       4.4119       0.4119       0.0118       0.2194     160.5038      92.0000       4.0000       4.0000    1999.9996      12.6903    1862.0000       0.0000     155.4800       0.0000       0.0000       0.0000       0.5274       0.1658       0.1658    1407.2682       0.0000     -13.7358   -2589.4314   -2589.4314    2679.8257     142.0000       0.9031    2443.0289    2119.2520    1604.0607    1175.0428     826.0263       0.0000       4.0520       4.0066       1.0000 -999999.9999       3.3851       5.3718       5.6582       5.3716       5.2089       5.5440       4.9118       4.2824       8.0628       4.0520       4.0066       4.3899       5.5751       4.1465       0.1676       0.6153       5.0013       4.6858       5.3181       5.9794       6.0163       5.2142       5.3475       0.0000       5.3826       0.0000
     143.0  143000.0000     143.0000       2.3834         23          2          0     224157       8.5000    2853.5259     454.8964      42.2628     155.0000     219.7400    2840.0000    2884.0000       0.0000      78.0000       0.3263    1404.4048       4.4048       4.4048       0.4048       0.0048       0.1953     160.5066      83.0000       0.0000       4.0000    1999.9996      12.6917    1872.0000       0.0000     155.4800       0.0000       0.0000       0.0000       0.4776       0.1662       0.1662    1407.2611       0.0000       2.5639   -2566.9895   -2566.9895    2696.0554     143.0000       0.9031    2385.5644    2174.3472    1630.0245    1212.5492     870.0251       0.0000       3.9181       4.0223       1.0000 -999999.9999       3.4268       5.3418       5.4311       5.5811       5.0383       5.4266       5.0329       4.2824       6.1256       3.9181       4.0223       4.4122       5.3937       4.1990      -0.0390       0.6154       5.4071       4.8323       5.1036       5.8374       6.0163       5.5000       5.1575       0.0000       5.3826       0.0000
