~VERSION INFORMATION
VERS.           3.0   :CWLS Log ASCII Standard - VERSION 3.0
WRAP.           NO    :One Line per depth step
DLM.          SPACE   :Column Data Section Delimiter Character
PROD.  Schlumberger   :LAS Producer
PROG.  DLIS to ASCII 2.3                               :LAS Program name and version
CREA.        2019/12/12 08:42                          :LAS Creation date {YYYY/MM/DD hh:mm}
DLIS_CREA.  2010-Jan-21 21:56                          :DLIS Creation date and time {YYYY-MMM-DD hh:mm}
SOURCE.     RCI_k800g35.dlis                           :DLIS File Name
FILE-ID.     BATLAS.001                                :File Identification Number
#--------------------------------------------------
~WELL INFORMATION
#MNEM.UNIT      DATA             DESCRIPTION
#---- ------ --------------   -----------------------------
STRT .S            0.0       :START TIME
STOP .S          228.0       :STOP DEPTH
STEP .S            1.0       :STEP
NULL .          -999.25      :NULL VALUE
COMP .        ECOPETROL                                :COMPANY
WELL .        HECHICERA-1                              :WELL
FLD  .        CANO SUR                                 :FIELD
LOC  .                                                 :LOCATION
CNTY .                                                 :COUNTY
STAT .                                                 :STATE
CTRY .                                                 :COUNTRY
API  .                                                 :API NUMBER
UWI  .                                                 :UNIQUE WELL ID
DATE .                                                 :LOG DATE
SRVC .        ATLAS                                    :SERVICE COMPANY
LATI .DEG                                              :LATITUDE
LONG .DEG                                              :LONGITUDE
GDAT .                                                 :GeoDetic Datum
#-----------------------------------------------------------------------------
~PARAMETER INFORMATION
#MNEM.UNIT    VALUE                      DESCRIPTION
#---- -----   --------------------       ------------------------
RUN  .                                   :RUN NUMBER
PDAT .                                   :Permanent Datum
EPD  .                                   :Elevation of Permanent Datum above Mean Sea Level
LMF  .                                   :Logging Measured From (Name of Logging Elevation Reference)
APD  .                                   :Elevation of Depth Reference (LMF) above Permanent Datum
#-----------------------------------------------------------------------------
~CURVE INFORMATION
#MNEM.UNIT   API CODE                                  DESCRIPTION
#---- -----  --------                                  -----------------------
TTIM .S                                                :TIME {F10.1}
TIME .MS                                               :system time since record start {F13.4}
SEC  .S                                                :time in seconds {F13.4}
MIN  .MN                                               :time in minutes {F13.4}
ESEC .S                                                :Remainder of sec curve since RECORD mode started in seconds. {I11}
EMIN .MN                                               :Remainder of sec since RECORD mode started in minutes {I11}
EHR  .HR                                               :Whole hours since RECORD mode started. {I11}
HHMMSS.                                                :hours, minutes, seconds {I11}
BIT  .IN                                               :bit size {F13.4}
DEPTH.F                                                :system depth {F13.4}
WTBH .DEGF                                             :temperature of the borehole {F13.4}
WRM  .OHMM                                             :mud resistivity {F13.4}
APGC .PSI                                              :1970CB hydraulic system pressure {F13.4}
RTDC .DEGF                                             :1970CA motor temperature {F13.4}
ECLP .PSI                                              :pressure emergency close reservoir {F13.4}
FPAD .PSI                                              :packer extend pressure {F13.4}
RPAD .PSI                                              :packer retract pressure {F13.4}
RCPERM.                                                :Dielectric constant of fluid in R/C sensor {F13.4}
RCRES.OHMM                                             :Resistivity of fluid in R/C sensor {F13.4}
APQL .PSI                                              :1970LB Quartzdyne gauge pressure {F13.4}
ONESB.PSI                                              :Pressure less than 10 {F13.4}
TENSB.PSI                                              :Pressure less than 100.0 {F13.4}
DECSB.PSI                                              :Pressure less than 1.0 {F13.4}
HNDSB.PSI                                              :Pressure less than 0.1 {F13.4}
DPTL .P/MN                                             :1970LB differential pressure {F13.4}
RTDQL.DEGF                                             :1970LA Quartzdyne pressure gauge temperature {F13.4}
PEXR .PSI                                              :1970RB Pump Extend Pressure {F13.4}
PRER .PSI                                              :1970RB Pump Retracted Pressure {F13.4}
PSCR .                                                 :1970RB Pump Strokes Count {F13.4}
PTVR .C3                                               :1970RB Pumped volume {F13.4}
LMP  .CM                                               :pump piston position {F13.4}
PEXB .PSI                                              :piston extend pressure {F13.4}
PREB .PSI                                              :piston retract pressure {F13.4}
PVTT .DEGF                                             :pump chamber temperature {F13.4}
DDV  .C3                                               :drawdown volume {F13.4}
PVTV .C3                                               :PVT volume {F13.4}
PTV  .C3                                               :pt_vol for rci {F13.4}
BUQC .P/MN                                             :build-up quality curve {F13.4}
RTLQC.                                                 :Delta rtdql/delta time {F13.4}
RTKQC.                                                 :Delta rtdqk/delta time {F13.4}
PLCOR.PSI                                              :apqk depth corrected {F13.4}
CPTV .C3                                               :Cumulative pump-through volume {F13.4}
TEN  .LBF                                              :differential tension {F13.4}
CHT4 .LBF                                              :cable head tension {F13.4}
CHT  .LBF                                              :cable head tension {F13.4}
TTEN .LBF                                              :total tension {F13.4}
TTIM .S                                                :  3.000000 s frame 1 time {F13.4}
CMOSS.J.                                               :Clausius-Mossotti Refractive Index {F13.4}
FLCH2.J.                                               :Flourescence channel 2 (475 nm) {F13.4}
FLCH3.J.                                               :Flourescence channel 3 (525 nm) {F13.4}
FLCH4.J.                                               :Flourescence channel 4 (575 nm) {F13.4}
FLCH5.J.                                               :Flourescence channel 5 (632 nm) {F13.4}
FLCH6.J.                                               :Flourescence channel 6 (694 nm) {F13.4}
GASF.J.                                                :Gas Fraction {F13.4}
M1.J .                                                 :1670 nanometer optical density {F13.4}
M2.J .                                                 :1682 nanometer optical density {F13.4}
MUDF.J.                                                :Mud Fraction {F13.4}
NACL.J.PPM                                             :NaCl Concentration {F13.4}
OD1.J.                                                 :Optical Density, Channel 1 {F13.4}
OD10.J.                                                :Optical Density, Channel 10 {F13.4}
OD11.J.                                                :Optical Density, Channel 11 {F13.4}
OD12.J.                                                :Optical Density, Channel 12 {F13.4}
OD13.J.                                                :Optical Density, Channel 13 {F13.4}
OD14.J.                                                :Optical Density, Channel 14 {F13.4}
OD15.J.                                                :Optical Density, Channel 15 {F13.4}
OD16.J.                                                :Optical Density, Channel 16 {F13.4}
OD17.J.                                                :Optical Density, Channel 17 {F13.4}
OD18.J.                                                :Optical Density, Channel 18 {F13.4}
OD19.J.                                                :Optical Density, Channel 19 {F13.4}
OD2.J.                                                 :Optical Density, Channel 2 {F13.4}
OD20.J.                                                :Optical Density, Channel 20 {F13.4}
OD21.J.                                                :Optical Density, Channel 21 {F13.4}
OD22.J.                                                :Optical Density, Channel 22 {F13.4}
OD23.J.                                                :Optical Density, Channel 23 {F13.4}
OD3.J.                                                 :Optical Density, Channel 3 {F13.4}
OD4.J.                                                 :Optical Density, Channel 4 {F13.4}
OD5.J.                                                 :Optical Density, Channel 5 {F13.4}
OD6.J.                                                 :Optical Density, Channel 6 {F13.4}
OD7.J.                                                 :Optical Density, Channel 7 {F13.4}
OD8.J.                                                 :Optical Density, Channel 8 {F13.4}
OD9.J.                                                 :Optical Density, Channel 9 {F13.4}
OILF.J.                                                :Oil Fraction {F13.4}
REFRI.J.                                               :Refractive index, 1740 nm {F13.4}
WTRF.J.                                                :Water Fraction {F13.4}
#-----------------------------------------------------------------------------
#
#     TTIM        TIME         SEC          MIN          ESEC            EMIN            EHR             HHMMSS          BIT         DEPTH         WTBH         WRM          APGC         RTDC         ECLP         FPAD         RPAD        RCPERM       RCRES         APQL        ONESB        TENSB        DECSB        HNDSB         DPTL        RTDQL         PEXR         PRER         PSCR         PTVR         LMP          PEXB         PREB         PVTT         DDV          PVTV         PTV          BUQC        RTLQC        RTKQC        PLCOR         CPTV         TEN          CHT4         CHT          TTEN         TTIM       CMOSS.J      FLCH2.J      FLCH3.J      FLCH4.J      FLCH5.J      FLCH6.J       GASF.J        M1.J         M2.J        MUDF.J       NACL.J       OD1.J        OD10.J       OD11.J       OD12.J       OD13.J       OD14.J       OD15.J       OD16.J       OD17.J       OD18.J       OD19.J       OD2.J        OD20.J       OD21.J       OD22.J       OD23.J       OD3.J        OD4.J        OD5.J        OD6.J        OD7.J        OD8.J        OD9.J        OILF.J      REFRI.J       WTRF.J
#
~Ascii | Curve
       0.0     125.0000       0.1250       0.0021          0          0          0     223934       8.5000    2853.5259    -999.2500    -999.2500     172.0000     210.3800    2864.0000       0.0000    2664.0000      78.0000       0.3190    -999.2500    -999.2500    -999.2500    -999.2500    -999.2500    -999.2500    -999.2500       0.0000       0.0000       4.0000    1999.9996    -999.2500    1940.0000       0.0000     155.1200    -999.2500    -999.2500    -999.2500    -999.2500    -999.2500    -999.2500    -999.2500    -999.2500    -999.2500    -999.2500    -999.2500    -999.2500       3.0000    -999.2500    -999.2500    -999.2500    -999.2500    -999.2500    -999.2500       0.0000       3.9794       4.0635       1.0000    -999.2500       3.3333       5.5616       4.8941       5.0917       4.2655       5.3603       4.6447       4.4373       4.2553       3.9794       4.0635       4.7778       4.3762       3.8994       0.4451       0.6179       4.6990       5.6899       5.2316       6.5985       6.4934       6.1837       4.6665       0.0000    -999.2500       0.0000
       1.0    1000.0000       1.0000       0.0167          1          0          0     223935       8.5000    2853.5259     454.8964      42.1538     169.0000     210.5600    2855.0000       0.0000    2674.0000      78.0000       0.3200    1401.8530       1.8530       1.8530       0.8530       0.0530    -999.2500     160.0983       0.0000       0.0000       4.0000    1999.9996      12.6903    1945.0000       0.0000     155.1200       0.0000       0.0000       0.0000 -599940.0000      -0.0030      -0.0030    1404.7094       0.0000     -37.1152   -2682.5049   -2682.5049    2680.9202       3.0000    -999.2500    -999.2500    -999.2500    -999.2500    -999.2500    -999.2500       0.0000       3.9794       4.0635       1.0000    -999.2500       3.3333       5.5616       4.8941       5.0917       4.2655       5.3603       4.6447       4.4373       4.2553       3.9794       4.0635       4.7778       4.3762       3.8994       0.4451       0.6179       4.6990       5.6899       5.2316       6.5985       6.4934       6.1837       4.6665       0.0000    -999.2500       0.0000
       2.0    2000.0000       2.0000       0.0333          2          0          0     223936       8.5000    2853.5259     454.8964      42.1605     172.0000     210.7400    2869.0000       0.0000    2654.0000      78.0000       0.3185    1401.8563       1.8563       1.8563       0.8563       0.0563    -999.2500     160.1013       0.0000       0.0000       4.0000    1999.9996      12.6889    1950.0000       0.0000     155.1200       0.0000       0.0000       0.0000 -599940.0000      -0.0030      -0.0030    1404.7126       0.0000     -17.3032   -2674.6738   -2674.6738    2700.4885       3.0000    -999.2500    -999.2500    -999.2500    -999.2500    -999.2500    -999.2500       0.0000       3.9794       4.0635       1.0000    -999.2500       3.3333       5.5616       4.8941       5.0917       4.2655       5.3603       4.6447       4.4373       4.2553       3.9794       4.0635       4.7778       4.3762       3.8994       0.4451       0.6179       4.6990       5.6899       5.2316       6.5985       6.4934       6.1837       4.6665       0.0000    -999.2500       0.0000
       3.0    3000.0000       3.0000       0.0500          3          0          0     223937       8.5000    2853.5259     454.8964      42.3578     165.0000     210.3800    2855.0000       0.0000    2669.0000      78.0000       0.3177    1401.8621       1.8621       1.8621       0.8621       0.0620    -999.2500     160.1046       0.0000       0.0000       4.0000    1999.9996      12.6898    1945.0000       0.0000     155.3000       0.0000       0.0000       0.0000 -599940.0000      -0.0030      -0.0030    1404.7184       0.0000     -42.4039   -2669.1663   -2669.1663    2675.0986       3.0000    -999.2500    -999.2500    -999.2500    -999.2500    -999.2500    -999.2500       0.0000       3.9794       4.0635       1.0000    -999.2500       3.3333       5.5616       4.8941       5.0917       4.2655       5.3603       4.6447       4.4373       4.2553       3.9794       4.0635       4.7778       4.3762       3.8994       0.4451       0.6179       4.6990       5.6899       5.2316       6.5985       6.4934       6.1837       4.6665       0.0000    -999.2500       0.0000
       4.0    4000.0000       4.0000       0.0667          4          0          0     223938       8.5000    2853.5259     454.8964      42.2140     164.0000     211.2800    2864.0000       0.0000    2664.0000      78.0000       0.3161    1401.8662       1.8662       1.8662       0.8662       0.0662    -999.2500     160.1076       0.0000       0.0000       4.0000    1999.9996      12.6916    1940.0000       0.0000     154.7600       0.0000       0.0000       0.0000 -599940.0000      -0.0030      -0.0030    1404.7225       0.0000     -36.1290   -2626.8254   -2626.8254    2680.9202       4.0000    -999.2500    -999.2500    -999.2500    -999.2500    -999.2500    -999.2500       0.0000       3.9681       4.0431       1.0000    -999.2500       3.4276       5.5326       5.1981       5.1541       4.2601       5.1310       4.6517       4.5183       4.4560       3.9681       4.0431       4.7692       4.4827       4.2591       0.2960       0.6177       4.7047       5.4569       5.4645       7.7324       6.4934       5.9020       4.7785       0.0000    -999.2500       0.0000
       5.0    5000.0000       5.0000       0.0833          5          0          0     223939       8.5000    2853.5259     454.8964      42.1946     165.0000     211.2800    2860.0000       0.0000    2654.0000      78.0000       0.3202    1401.8717       1.8717       1.8717       0.8717       0.0717    -999.2500     160.1107       0.0000       0.0000       4.0000    1999.9996      12.6916    1931.0000       0.0000     155.1200       0.0000       0.0000       0.0000 -599940.0000      -0.0030      -0.0030    1404.7280       0.0000     -22.4717   -2705.4063   -2705.4063    2694.2852       5.0000    -999.2500    -999.2500    -999.2500    -999.2500    -999.2500    -999.2500       0.0000       3.9568       4.0227       1.0000    -999.2500       3.5218       5.5035       5.5022       5.2164       4.2546       4.9017       4.6588       4.5993       4.6567       3.9568       4.0227       4.7606       4.5892       4.6188       0.1470       0.6174       4.7104       5.2239       5.6975       8.8662       6.4934       5.6203       4.8904       0.0000    -999.2500       0.0000
       6.0    6000.0000       6.0000       0.1000          6          0          0     223940       8.5000    2853.5259     454.8964      42.4098     165.0000     211.1000    2855.0000       0.0000    2664.0000      78.0000       0.3199    1401.8755       1.8755       1.8755       0.8755       0.0755    -999.2500     160.1138       0.0000       0.0000       4.0000    1999.9996      12.6910    1931.0000       0.0000     155.1200       0.0000       0.0000       0.0000 -599940.0000      -0.0030      -0.0030    1404.7318       0.0000     -42.6392   -2649.0303   -2649.0303    2673.7876       6.0000    -999.2500    -999.2500    -999.2500    -999.2500    -999.2500    -999.2500       0.0000       3.9455       4.0022       1.0000    -999.2500       3.6161       5.4745       5.8062       5.2788       4.2491       4.6724       4.6658       4.6803       4.8573       3.9455       4.0022       4.7520       4.6957       4.9786      -0.0021       0.6171       4.7160       4.9909       5.9305      10.0000       6.4934       5.3386       5.0023       0.0000    -999.2500       0.0000
       7.0    7000.0000       7.0000       0.1167          7          0          0     223941       8.5000    2853.5259     454.8964      42.1718     169.0000     211.1000    2855.0000       0.0000    2664.0000      78.0000       0.3172    1401.8777       1.8777       1.8777       0.8777       0.0777    -999.2500     160.1168       0.0000       0.0000       4.0000    1999.9996      12.6913    1936.0000       0.0000     155.1200       0.0000       0.0000       0.0000 -599940.0000      -0.0030      -0.0030    1404.7340       0.0000     -39.0760   -2652.5823   -2652.5823    2676.9094       7.0000    -999.2500    -999.2500    -999.2500    -999.2500    -999.2500    -999.2500       0.0000       3.9455       4.0022       1.0000    -999.2500       3.6161       5.4745       5.8062       5.2788       4.2491       4.6724       4.6658       4.6803       4.8573       3.9455       4.0022       4.7520       4.6957       4.9786      -0.0021       0.6171       4.7160       4.9909       5.9305      10.0000       6.4934       5.3386       5.0023       0.0000    -999.2500       0.0000
