~VERSION INFORMATION
VERS.           3.0   :CWLS Log ASCII Standard - VERSION 3.0
WRAP.           NO    :One Line per depth step
DLM.          SPACE   :Column Data Section Delimiter Character
PROD.  Schlumberger   :LAS Producer
PROG.  DLIS to ASCII 2.3                               :LAS Program name and version
CREA.        2019/12/12 08:42                          :LAS Creation date {YYYY/MM/DD hh:mm}
DLIS_CREA.  2010-Jan-21 21:56                          :DLIS Creation date and time {YYYY-MMM-DD hh:mm}
SOURCE.     RCI_k800g35.dlis                           :DLIS File Name
FILE-ID.     BATLAS.001                                :File Identification Number
#--------------------------------------------------
~WELL INFORMATION
#MNEM.UNIT      DATA             DESCRIPTION
#---- ------ --------------   -----------------------------
STRT .S            0.0       :START TIME
STOP .S          228.0       :STOP DEPTH
STEP .S            1.0       :STEP
NULL .          -999.25      :NULL VALUE
COMP .        ECOPETROL                                :COMPANY
WELL .        HECHICERA-1                              :WELL
FLD  .        CANO SUR                                 :FIELD
LOC  .                                                 :LOCATION
CNTY .                                                 :COUNTY
STAT .                                                 :STATE
CTRY .                                                 :COUNTRY
API  .                                                 :API NUMBER
UWI  .                                                 :UNIQUE WELL ID
DATE .                                                 :LOG DATE
SRVC .        ATLAS                                    :SERVICE COMPANY
LATI .DEG                                              :LATITUDE
LONG .DEG                                              :LONGITUDE
GDAT .                                                 :GeoDetic Datum
#-----------------------------------------------------------------------------
~PARAMETER INFORMATION
#MNEM.UNIT    VALUE                      DESCRIPTION
#---- -----   --------------------       ------------------------
RUN  .                                   :RUN NUMBER
PDAT .                                   :Permanent Datum
EPD  .                                   :Elevation of Permanent Datum above Mean Sea Level
LMF  .                                   :Logging Measured From (Name of Logging Elevation Reference)
APD  .                                   :Elevation of Depth Reference (LMF) above Permanent Datum
#-----------------------------------------------------------------------------
~CURVE INFORMATION
#MNEM.UNIT   API CODE                                  DESCRIPTION
#---- -----  --------                                  -----------------------
TTIM .S                                                :TIME {F10.1}
TIME .MS                                               :system time since record start {F13.4}
SEC  .S                                                :time in seconds {F13.4}
MIN  .MN                                               :time in minutes {F13.4}
ESEC .S                                                :Remainder of sec curve since RECORD mode started in seconds. {I11}
EMIN .MN                                               :Remainder of sec since RECORD mode started in minutes {I11}
EHR  .HR                                               :Whole hours since RECORD mode started. {I11}
HHMMSS.                                                :hours, minutes, seconds {I11}
BIT  .IN                                               :bit size {F13.4}
DEPTH.F                                                :system depth {F13.4}
WTBH .DEGF                                             :temperature of the borehole {F13.4}
WRM  .OHMM                                             :mud resistivity {F13.4}
APGC .PSI                                              :1970CB hydraulic system pressure {F13.4}
RTDC .DEGF                                             :1970CA motor temperature {F13.4}
ECLP .PSI                                              :pressure emergency close reservoir {F13.4}
FPAD .PSI                                              :packer extend pressure {F13.4}
RPAD .PSI                                              :packer retract pressure {F13.4}
RCPERM.                                                :Dielectric constant of fluid in R/C sensor {F13.4}
RCRES.OHMM                                             :Resistivity of fluid in R/C sensor {F13.4}
APQL .PSI                                              :1970LB Quartzdyne gauge pressure {F13.4}
ONESB.PSI                                              :Pressure less than 10 {F13.4}
TENSB.PSI                                              :Pressure less than 100.0 {F13.4}
DECSB.PSI                                              :Pressure less than 1.0 {F13.4}
HNDSB.PSI                                              :Pressure less than 0.1 {F13.4}
DPTL .P/MN                                             :1970LB differential pressure {F13.4}
RTDQL.DEGF                                             :1970LA Quartzdyne pressure gauge temperature {F13.4}
PEXR .PSI                                              :1970RB Pump Extend Pressure {F13.4}
PRER .PSI                                              :1970RB Pump Retracted Pressure {F13.4}
PSCR .                                                 :1970RB Pump Strokes Count {F13.4}
PTVR .C3                                               :1970RB Pumped volume {F13.4}
LMP  .CM                                               :pump piston position {F13.4}
PEXB .PSI                                              :piston extend pressure {F13.4}
PREB .PSI                                              :piston retract pressure {F13.4}
PVTT .DEGF                                             :pump chamber temperature {F13.4}
DDV  .C3                                               :drawdown volume {F13.4}
PVTV .C3                                               :PVT volume {F13.4}
PTV  .C3                                               :pt_vol for rci {F13.4}
BUQC .P/MN                                             :build-up quality curve {F13.4}
RTLQC.                                                 :Delta rtdql/delta time {F13.4}
RTKQC.                                                 :Delta rtdqk/delta time {F13.4}
PLCOR.PSI                                              :apqk depth corrected {F13.4}
CPTV .C3                                               :Cumulative pump-through volume {F13.4}
TEN  .LBF                                              :differential tension {F13.4}
CHT4 .LBF                                              :cable head tension {F13.4}
CHT  .LBF                                              :cable head tension {F13.4}
TTEN .LBF                                              :total tension {F13.4}
TTIM .S                                                :  3.000000 s frame 1 time {F13.4}
CMOSS.J.                                               :Clausius-Mossotti Refractive Index {F13.4}
FLCH2.J.                                               :Flourescence channel 2 (475 nm) {F13.4}
FLCH3.J.                                               :Flourescence channel 3 (525 nm) {F13.4}
FLCH4.J.                                               :Flourescence channel 4 (575 nm) {F13.4}
FLCH5.J.                                               :Flourescence channel 5 (632 nm) {F13.4}
FLCH6.J.                                               :Flourescence channel 6 (694 nm) {F13.4}
GASF.J.                                                :Gas Fraction {F13.4}
M1.J .                                                 :1670 nanometer optical density {F13.4}
M2.J .                                                 :1682 nanometer optical density {F13.4}
MUDF.J.                                                :Mud Fraction {F13.4}
NACL.J.PPM                                             :NaCl Concentration {F13.4}
OD1.J.                                                 :Optical Density, Channel 1 {F13.4}
OD10.J.                                                :Optical Density, Channel 10 {F13.4}
OD11.J.                                                :Optical Density, Channel 11 {F13.4}
OD12.J.                                                :Optical Density, Channel 12 {F13.4}
OD13.J.                                                :Optical Density, Channel 13 {F13.4}
OD14.J.                                                :Optical Density, Channel 14 {F13.4}
OD15.J.                                                :Optical Density, Channel 15 {F13.4}
OD16.J.                                                :Optical Density, Channel 16 {F13.4}
OD17.J.                                                :Optical Density, Channel 17 {F13.4}
OD18.J.                                                :Optical Density, Channel 18 {F13.4}
OD19.J.                                                :Optical Density, Channel 19 {F13.4}
OD2.J.                                                 :Optical Density, Channel 2 {F13.4}
OD20.J.                                                :Optical Density, Channel 20 {F13.4}
OD21.J.                                                :Optical Density, Channel 21 {F13.4}
OD22.J.                                                :Optical Density, Channel 22 {F13.4}
OD23.J.                                                :Optical Density, Channel 23 {F13.4}
OD3.J.                                                 :Optical Density, Channel 3 {F13.4}
OD4.J.                                                 :Optical Density, Channel 4 {F13.4}
OD5.J.                                                 :Optical Density, Channel 5 {F13.4}
OD6.J.                                                 :Optical Density, Channel 6 {F13.4}
OD7.J.                                                 :Optical Density, Channel 7 {F13.4}
OD8.J.                                                 :Optical Density, Channel 8 {F13.4}
OD9.J.                                                 :Optical Density, Channel 9 {F13.4}
OILF.J.                                                :Oil Fraction {F13.4}
REFRI.J.                                               :Refractive index, 1740 nm {F13.4}
WTRF.J.                                                :Water Fraction {F13.4}
#-----------------------------------------------------------------------------
#
#     TTIM        TIME         SEC          MIN          ESEC            EMIN            EHR             HHMMSS          BIT         DEPTH         WTBH         WRM          APGC         RTDC         ECLP         FPAD         RPAD        RCPERM       RCRES         APQL        ONESB        TENSB        DECSB        HNDSB         DPTL        RTDQL         PEXR         PRER         PSCR         PTVR         LMP          PEXB         PREB         PVTT         DDV          PVTV         PTV          BUQC        RTLQC        RTKQC        PLCOR         CPTV         TEN          CHT4         CHT          TTEN         TTIM       CMOSS.J      FLCH2.J      FLCH3.J      FLCH4.J      FLCH5.J      FLCH6.J       GASF.J        M1.J         M2.J        MUDF.J       NACL.J       OD1.J        OD10.J       OD11.J       OD12.J       OD13.J       OD14.J       OD15.J       OD16.J       OD17.J       OD18.J       OD19.J       OD2.J        OD20.J       OD21.J       OD22.J       OD23.J       OD3.J        OD4.J        OD5.J        OD6.J        OD7.J        OD8.J        OD9.J        OILF.J      REFRI.J       WTRF.J
#
~Ascii | Curve
# ...
     224.0  224000.0000     224.0000       3.7334         44          3          0     224318       8.5000    2853.5259     454.8964      42.2908     164.0000     221.9000    2855.0000    2816.0000       0.0000      78.0000       0.3262    1401.9095       1.9095       1.9095       0.9095       0.0095    -999.2500     160.7180      73.0000       0.0000       4.0000    1999.9996       8.2300       0.0000      14.0000     155.4800      10.6842       0.0000       0.0000       0.8494       0.1470       0.1470    1404.7659       0.0000       9.0968   -2603.6421   -2603.6421    2698.9348     224.0000    -999.2500    -999.2500    -999.2500    -999.2500    -999.2500    -999.2500       0.0000       5.1292       4.3860       1.0000    -999.2500       3.5010       5.3180       5.8740       5.4395       4.6185       4.7599       5.1135       4.2349       4.2998       5.1292       4.3860       4.9521       4.8074       4.0420       0.0557       0.6144       5.1970       5.5027       4.8495       5.7460       8.6721       6.7132       5.4289       0.0000    -999.2500       0.0000
     225.0  225000.0000     225.0000       3.7501         45          3          0     224319       8.5000    2853.5259     454.8964      42.2902     163.0000     221.7200    2860.0000    2825.0000       0.0000      78.0000       0.3247    1401.9117       1.9117       1.9117       0.9117       0.0117    -999.2500     160.7202      68.0000       0.0000       4.0000    1999.9996       8.2337       0.0000      14.0000     155.3000      10.6842       0.0000       0.0000       1.0050       0.1466       0.1466    1404.7681       0.0000     -21.7082   -2634.9189   -2634.9189    2667.9880     225.0000    -999.2500    -999.2500    -999.2500    -999.2500    -999.2500    -999.2500       0.0000       5.0705       4.5406       1.0000    -999.2500       3.5819       5.3697       6.1070       5.1136       4.4765       4.7072       5.2265       4.2217       4.2931       5.0705       4.5406       4.6167       4.6595       3.9505       0.1269       0.6143       5.2689       5.1371       4.9305       5.3198      10.0000       5.0698       5.3412       0.0000    -999.2500       0.0000
     226.0  226000.0000     226.0000       3.7667         46          3          0     224320       8.5000    2853.5259     454.8964      42.1001     164.0000     221.7200    2855.0000    2820.0000       0.0000      78.0000       0.3255    1401.9109       1.9109       1.9109       0.9109       0.0109    -999.2500     160.7228      68.0000       0.0000       4.0000    1999.9996       8.2319       0.0000       9.0000     155.3000      10.6842       0.0000       0.0000       1.1368       0.1460       0.1460    1404.7672       0.0000       4.6359   -2662.7046   -2662.7046    2694.2852     226.0000    -999.2500    -999.2500    -999.2500    -999.2500    -999.2500    -999.2500       0.0000       4.8582       4.7287       1.0000    -999.2500       3.8200       5.3110       7.4047       5.5398       4.7776       4.9249       5.2919       4.5166       4.2746       4.8582       4.7287       4.4029       4.8438       4.2515       0.1407       0.6145       5.1492       5.1694       5.0632       5.3640       8.3837       5.3407       5.2059       0.0000    -999.2500       0.0000
     227.0  227000.0000     227.0000       3.7834         47          3          0     224321       8.5000    2853.5259     454.8964      42.3175     167.0000     222.4400    2850.0000    2830.0000       0.0000      78.0000       0.3232    1401.9097       1.9097       1.9097       0.9097       0.0096    -999.2500     160.7254      73.0000       0.0000       4.0000    1999.9996       8.2318       0.0000       9.0000     155.3000      10.6842       0.0000       0.0000       1.2557       0.1466       0.1466    1404.7660       0.0000     -19.3194   -2568.1621   -2568.1621    2670.2285     227.0000    -999.2500    -999.2500    -999.2500    -999.2500    -999.2500    -999.2500       0.0000       4.6459       4.9168       1.0000    -999.2500       4.0582       5.2523       8.7023       5.9661       5.0786       5.1426       5.3573       4.8114       4.2561       4.6459       4.9168       4.1891       5.0281       4.5525       0.1545       0.6148       5.0295       5.2017       5.1958       5.4082       6.7673       5.6117       5.0706       0.0000    -999.2500       0.0000
     228.0  228000.0000     228.0000       3.8001         48          3          0     224322       8.5000    2853.5259     454.8964      42.2923     168.0000     221.9000    2864.0000    2825.0000       0.0000      78.0000       0.3231    1401.9126       1.9126       1.9126       0.9126       0.0126    -999.2500     160.7277      78.0000       0.0000       4.0000    1999.9996       8.2343       4.0000       9.0000     155.4800      10.6842       0.0000       0.0000       1.4304       0.1461       0.1461    1404.7689       0.0000      -8.2606   -2617.7417   -2617.7417    2681.1367     228.0000    -999.2500    -999.2500    -999.2500    -999.2500    -999.2500    -999.2500       0.0000       4.4337       5.1049       1.0000    -999.2500       4.2964       5.1936      10.0000       6.3923       5.3796       5.3604       5.4227       5.1063       4.2376       4.4337       5.1049       3.9752       5.2123       4.8535       0.1683       0.6150       4.9099       5.2340       5.3285       5.4524       5.1510       5.8827       4.9354       0.0000    -999.2500       0.0000
