~VERSION INFORMATION
VERS.           3.0   :CWLS Log ASCII Standard - VERSION 3.0
WRAP.           NO    :One Line per depth step
DLM.          SPACE   :Column Data Section Delimiter Character
PROD.  Schlumberger   :LAS Producer
PROG.  DLIS to ASCII 2.3                               :LAS Program name and version
CREA.        2019/12/12 08:42                          :LAS Creation date {YYYY/MM/DD hh:mm}
DLIS_CREA.  2010-Jan-21 21:56                          :DLIS Creation date and time {YYYY-MMM-DD hh:mm}
SOURCE.     RCI_k800g35.dlis                           :DLIS File Name
FILE-ID.     BATLAS.001                                :File Identification Number
#--------------------------------------------------
~WELL INFORMATION
#MNEM.UNIT      DATA             DESCRIPTION
#---- ------ --------------   -----------------------------
STRT .S            0.0       :START TIME
STOP .S          228.0       :STOP DEPTH
STEP .S            1.0       :STEP
NULL .          -999.25      :NULL VALUE
COMP .        ECOPETROL                                :COMPANY
WELL .        HECHICERA-1                              :WELL
FLD  .        CANO SUR                                 :FIELD
LOC  .                                                 :LOCATION
CNTY .                                                 :COUNTY
STAT .                                                 :STATE
CTRY .                                                 :COUNTRY
API  .                                                 :API NUMBER
UWI  .                                                 :UNIQUE WELL ID
DATE .                                                 :LOG DATE
SRVC .        ATLAS                                    :SERVICE COMPANY
LATI .DEG                                              :LATITUDE
LONG .DEG                                              :LONGITUDE
GDAT .                                                 :GeoDetic Datum
#-----------------------------------------------------------------------------
~PARAMETER INFORMATION
#MNEM.UNIT    VALUE                      DESCRIPTION
#---- -----   --------------------       ------------------------
RUN  .                                   :RUN NUMBER
PDAT .                                   :Permanent Datum
EPD  .                                   :Elevation of Permanent Datum above Mean Sea Level
LMF  .                                   :Logging Measured From (Name of Logging Elevation Reference)
APD  .                                   :Elevation of Depth Reference (LMF) above Permanent Datum
#-----------------------------------------------------------------------------
~CURVE INFORMATION
#MNEM.UNIT   API CODE                                  DESCRIPTION
#---- -----  --------                                  -----------------------
TTIM .S                                                :TIME {F10.1}
TIME .MS                                               :system time since record start {F13.4}
SEC  .S                                                :time in seconds {F13.4}
MIN  .MN                                               :time in minutes {F13.4}
ESEC .S                                                :Remainder of sec curve since RECORD mode started in seconds. {I11}
EMIN .MN                                               :Remainder of sec since RECORD mode started in minutes {I11}
EHR  .HR                                               :Whole hours since RECORD mode started. {I11}
HHMMSS.                                                :hours, minutes, seconds {I11}
BIT  .IN                                               :bit size {F13.4}
DEPTH.F                                                :system depth {F13.4}
WTBH .DEGF                                             :temperature of the borehole {F13.4}
WRM  .OHMM                                             :mud resistivity {F13.4}
APGC .PSI                                              :1970CB hydraulic system pressure {F13.4}
RTDC .DEGF                                             :1970CA motor temperature {F13.4}
ECLP .PSI                                              :pressure emergency close reservoir {F13.4}
FPAD .PSI                                              :packer extend pressure {F13.4}
RPAD .PSI                                              :packer retract pressure {F13.4}
RCPERM.                                                :Dielectric constant of fluid in R/C sensor {F13.4}
RCRES.OHMM                                             :Resistivity of fluid in R/C sensor {F13.4}
APQL .PSI                                              :1970LB Quartzdyne gauge pressure {F13.4}
ONESB.PSI                                              :Pressure less than 10 {F13.4}
TENSB.PSI                                              :Pressure less than 100.0 {F13.4}
DECSB.PSI                                              :Pressure less than 1.0 {F13.4}
HNDSB.PSI                                              :Pressure less than 0.1 {F13.4}
DPTL .P/MN                                             :1970LB differential pressure {F13.4}
RTDQL.DEGF                                             :1970LA Quartzdyne pressure gauge temperature {F13.4}
PEXR .PSI                                              :1970RB Pump Extend Pressure {F13.4}
PRER .PSI                                              :1970RB Pump Retracted Pressure {F13.4}
PSCR .                                                 :1970RB Pump Strokes Count {F13.4}
PTVR .C3                                               :1970RB Pumped volume {F13.4}
LMP  .CM                                               :pump piston position {F13.4}
PEXB .PSI                                              :piston extend pressure {F13.4}
PREB .PSI                                              :piston retract pressure {F13.4}
PVTT .DEGF                                             :pump chamber temperature {F13.4}
DDV  .C3                                               :drawdown volume {F13.4}
PVTV .C3                                               :PVT volume {F13.4}
PTV  .C3                                               :pt_vol for rci {F13.4}
BUQC .P/MN                                             :build-up quality curve {F13.4}
RTLQC.                                                 :Delta rtdql/delta time {F13.4}
RTKQC.                                                 :Delta rtdqk/delta time {F13.4}
PLCOR.PSI                                              :apqk depth corrected {F13.4}
CPTV .C3                                               :Cumulative pump-through volume {F13.4}
TEN  .LBF                                              :differential tension {F13.4}
CHT4 .LBF                                              :cable head tension {F13.4}
CHT  .LBF                                              :cable head tension {F13.4}
TTEN .LBF                                              :total tension {F13.4}
TTIM .S                                                :  3.000000 s frame 1 time {F13.4}
CMOSS.J.                                               :Clausius-Mossotti Refractive Index {F13.4}
FLCH2.J.                                               :Flourescence channel 2 (475 nm) {F13.4}
FLCH3.J.                                               :Flourescence channel 3 (525 nm) {F13.4}
FLCH4.J.                                               :Flourescence channel 4 (575 nm) {F13.4}
FLCH5.J.                                               :Flourescence channel 5 (632 nm) {F13.4}
FLCH6.J.                                               :Flourescence channel 6 (694 nm) {F13.4}
GASF.J.                                                :Gas Fraction {F13.4}
M1.J .                                                 :1670 nanometer optical density {F13.4}
M2.J .                                                 :1682 nanometer optical density {F13.4}
MUDF.J.                                                :Mud Fraction {F13.4}
NACL.J.PPM                                             :NaCl Concentration {F13.4}
OD1.J.                                                 :Optical Density, Channel 1 {F13.4}
OD10.J.                                                :Optical Density, Channel 10 {F13.4}
OD11.J.                                                :Optical Density, Channel 11 {F13.4}
OD12.J.                                                :Optical Density, Channel 12 {F13.4}
OD13.J.                                                :Optical Density, Channel 13 {F13.4}
OD14.J.                                                :Optical Density, Channel 14 {F13.4}
OD15.J.                                                :Optical Density, Channel 15 {F13.4}
OD16.J.                                                :Optical Density, Channel 16 {F13.4}
OD17.J.                                                :Optical Density, Channel 17 {F13.4}
OD18.J.                                                :Optical Density, Channel 18 {F13.4}
OD19.J.                                                :Optical Density, Channel 19 {F13.4}
OD2.J.                                                 :Optical Density, Channel 2 {F13.4}
OD20.J.                                                :Optical Density, Channel 20 {F13.4}
OD21.J.                                                :Optical Density, Channel 21 {F13.4}
OD22.J.                                                :Optical Density, Channel 22 {F13.4}
OD23.J.                                                :Optical Density, Channel 23 {F13.4}
OD3.J.                                                 :Optical Density, Channel 3 {F13.4}
OD4.J.                                                 :Optical Density, Channel 4 {F13.4}
OD5.J.                                                 :Optical Density, Channel 5 {F13.4}
OD6.J.                                                 :Optical Density, Channel 6 {F13.4}
OD7.J.                                                 :Optical Density, Channel 7 {F13.4}
OD8.J.                                                 :Optical Density, Channel 8 {F13.4}
OD9.J.                                                 :Optical Density, Channel 9 {F13.4}
OILF.J.                                                :Oil Fraction {F13.4}
REFRI.J.                                               :Refractive index, 1740 nm {F13.4}
WTRF.J.                                                :Water Fraction {F13.4}
#-----------------------------------------------------------------------------
#
#     TTIM        TIME         SEC          MIN          ESEC            EMIN            EHR             HHMMSS          BIT         DEPTH         WTBH         WRM          APGC         RTDC         ECLP         FPAD         RPAD        RCPERM       RCRES         APQL        ONESB        TENSB        DECSB        HNDSB         DPTL        RTDQL         PEXR         PRER         PSCR         PTVR         LMP          PEXB         PREB         PVTT         DDV          PVTV         PTV          BUQC        RTLQC        RTKQC        PLCOR         CPTV         TEN          CHT4         CHT          TTEN         TTIM       CMOSS.J      FLCH2.J      FLCH3.J      FLCH4.J      FLCH5.J      FLCH6.J       GASF.J        M1.J         M2.J        MUDF.J       NACL.J       OD1.J        OD10.J       OD11.J       OD12.J       OD13.J       OD14.J       OD15.J       OD16.J       OD17.J       OD18.J       OD19.J       OD2.J        OD20.J       OD21.J       OD22.J       OD23.J       OD3.J        OD4.J        OD5.J        OD6.J        OD7.J        OD8.J        OD9.J        OILF.J      REFRI.J       WTRF.J
#
~Ascii | Curve
# ...
     208.0  208000.0000     208.0000       3.4667         28          3          0     224302       8.5000    2853.5259     454.8964      42.2196     169.0000     221.3600    2840.0000    2820.0000       0.0000      78.0000       0.3152    1401.7070       1.7070       1.7070       0.7070       0.0070       0.4808     160.6782      83.0000       0.0000       4.0000    1999.9996       8.2339       9.0000       9.0000     155.4800      10.6950       0.0000       0.0000      58.8183       0.1556       0.1556    1404.5634       0.0000      -5.2207   -2620.3162   -2620.3162    2684.9307     208.0000       0.9074    2718.6567    2811.3990    2300.3459    1250.4958     878.3273       0.0000       5.0817       6.2178       1.0000 -999999.9999       3.9851       5.7876       5.8186       5.1482       4.7437       4.9665       5.0630       4.6879       4.2490       5.0817       6.2178       4.2782       4.8808       4.8952      -0.0294       0.6153       4.6937       5.3971       4.9375       5.0407       5.4283       5.3497       5.2513       0.0000       5.5166       0.0000
     209.0  209000.0000     209.0000       3.4834         29          3          0     224303       8.5000    2853.5259     454.8964      42.2731     169.0000     221.9000    2864.0000    2825.0000       0.0000      78.0000       0.3167    1401.7241       1.7241       1.7241       0.7241       0.0241       0.4282     160.6810      73.0000       0.0000       4.0000    1999.9996       8.2347       0.0000       4.0000     155.4800      10.6930       0.0000       0.0000      42.9133       0.1543       0.1543    1404.5804       0.0000      -7.7137   -2559.0217   -2559.0217    2682.4480     209.0000       0.9046    2751.2406    2756.9496    2265.6755    1270.4317     853.2296       0.0000       4.6157       8.1089       1.0000 -999999.9999       3.6467       5.5365       5.5301       5.0802       4.6818       4.9249       5.0043       4.5705       4.4423       4.6157       8.1089       4.4189       5.0466       4.9368      -0.0811       0.6154       4.5522       5.2135       5.1620       5.0739       5.2083       5.2561       5.2963       0.0000       5.4289       0.0000
     210.0  210000.0000     210.0000       3.5001         30          3          0     224304       8.5000    2853.5259     454.8964      42.2238     163.0000     221.7200    2845.0000    2820.0000       0.0000      78.0000       0.3168    1401.7352       1.7352       1.7352       0.7352       0.0352       0.4522     160.6833      73.0000       0.0000       4.0000    1999.9996       8.2380       0.0000       4.0000     155.6600      10.6851       0.0000       0.0000      22.0807       0.1513       0.1513    1404.5916       0.0000       4.1308   -2586.7119   -2586.7119    2694.2852     210.0000       0.9017    2783.8245    2702.5002    2231.0051    1290.3677     828.1320       0.0000       4.1497      10.0000       1.0000 -999999.9999       3.3084       5.2854       5.2417       5.0121       4.6200       4.8833       4.9456       4.4531       4.6355       4.1497      10.0000       4.5595       5.2124       4.9785      -0.1327       0.6155       4.4107       5.0299       5.3865       5.1072       4.9883       5.1625       5.3412       0.0000       5.3412       0.0000
     211.0  211000.0000     211.0000       3.5167         31          3          0     224305       8.5000    2853.5259     454.8964      42.1635     163.0000     221.9000    2845.0000    2835.0000       0.0000      78.0000       0.3156    1401.7483       1.7483       1.7483       0.7483       0.0483       0.5559     160.6859      78.0000       0.0000       4.0000    1999.9996       8.2367       0.0000       9.0000     155.4800      10.6884       0.0000       0.0000       5.1606       0.1496       0.1496    1404.6046       0.0000      -5.1750   -2563.0728   -2563.0728    2684.9307     211.0000       0.8965    2739.2984    2676.0557    2173.7820    1354.5511     802.0573       0.0000       4.1497      10.0000       1.0000 -999999.9999       3.3084       5.2854       5.2417       5.0121       4.6200       4.8833       4.9456       4.4531       4.6355       4.1497      10.0000       4.5595       5.2124       4.9785      -0.1327       0.6155       4.4107       5.0299       5.3865       5.1072       4.9883       5.1625       5.3412       0.0000       5.2059       0.0000
     212.0  212000.0000     212.0000       3.5334         32          3          0     224306       8.5000    2853.5259     454.8964      42.2818     167.0000     222.0800    2850.0000    2830.0000       0.0000      78.0000       0.3164    1401.7571       1.7571       1.7571       0.7571       0.0571       0.6566     160.6885      73.0000       0.0000       4.0000    1999.9996       8.2381       4.0000       9.0000     155.4800      10.6849       0.0000       0.0000       1.4334       0.1492       0.1492    1404.6134       0.0000      -7.6642   -2579.1763   -2579.1763    2682.4480     212.0000       0.8914    2694.7724    2649.6112    2116.5588    1418.7345     775.9826       0.0000       4.1497      10.0000       1.0000 -999999.9999       3.3084       5.2854       5.2417       5.0121       4.6200       4.8833       4.9456       4.4531       4.6355       4.1497      10.0000       4.5595       5.2124       4.9785      -0.1327       0.6155       4.4107       5.0299       5.3865       5.1072       4.9883       5.1625       5.3412       0.0000       5.0706       0.0000
     213.0  213000.0000     213.0000       3.5501         33          3          0     224307       8.5000    2853.5259     454.8964      42.2943     165.0000     222.4400    2855.0000    2825.0000       0.0000      78.0000       0.3251    1401.8835       1.8835       1.8835       0.8835       0.0835       0.7317     160.6909      78.0000       0.0000       4.0000    1999.9996       8.2332       0.0000       4.0000     155.4800      10.6842       0.0000       0.0000       1.3093       0.1522       0.1522    1404.7399       0.0000      -8.8847   -2646.2886   -2646.2886    2681.1367     213.0000       0.8862    2650.2463    2623.1667    2059.3357    1482.9178     749.9080       0.0000       4.1497      10.0000       1.0000 -999999.9999       3.3084       5.2854       5.2417       5.0121       4.6200       4.8833       4.9456       4.4531       4.6355       4.1497      10.0000       4.5595       5.2124       4.9785      -0.1327       0.6155       4.4107       5.0299       5.3865       5.1072       4.9883       5.1625       5.3412       0.0000       4.9354       0.0000
     214.0  214000.0000     214.0000       3.5667         34          3          0     224308       8.5000    2853.5259     454.8964      42.4121    2713.0000     222.2600    2879.0000    2825.0000       0.0000      78.0000       0.3169    1401.5798       1.5798       1.5798       0.5798       0.0798       0.7903     160.6935      97.0000       9.0000       4.0000    1999.9996       8.2337       0.0000      24.0000     155.4800      10.6842       0.0000       0.0000       1.0347       0.1509       0.1509    1404.4362       0.0000      -8.7987   -2545.7158   -2545.7158    2681.1367     214.0000    -999.2500    -999.2500    -999.2500    -999.2500    -999.2500    -999.2500       0.0000       4.1282       8.0212       1.0000    -999.2500       3.4264       5.2693       5.3711       5.1125       4.5105       5.0616       5.0043       6.3021       4.4348       4.1282       8.0212       4.5786       5.0169       4.8194      -0.1004       0.6153       4.6604       5.0545       5.0639       5.0981       4.9712       5.2019       5.1108       0.0000    -999.2500       0.0000
     215.0  215000.0000     215.0000       3.5834         35          3          0     224309       8.5000    2853.5259     454.8964      42.1847    2716.0000     222.8000    2879.0000    2830.0000       0.0000      78.0000       0.3189    1401.6146       1.6146       1.6146       0.6146       0.0146       0.8248     160.6958      97.0000       4.0000       4.0000    1999.9996       8.2370       0.0000      19.0000     156.0200      10.6842       0.0000       0.0000       0.6572       0.1518       0.1518    1404.4709       0.0000      -8.7110   -2547.8835   -2547.8835    2681.1367     215.0000    -999.2500    -999.2500    -999.2500    -999.2500    -999.2500    -999.2500       0.0000       4.1067       6.0423       1.0000    -999.2500       3.5445       5.2532       5.5005       5.2128       4.4010       5.2400       5.0630       8.1510       4.2342       4.1067       6.0423       4.5977       4.8215       4.6604      -0.0681       0.6152       4.9101       5.0790       4.7413       5.0890       4.9542       5.2413       4.8805       0.0000    -999.2500       0.0000
