~VERSION INFORMATION
VERS.           3.0   :CWLS Log ASCII Standard - VERSION 3.0
WRAP.           NO    :One Line per depth step
DLM.          SPACE   :Column Data Section Delimiter Character
PROD.  Schlumberger   :LAS Producer
PROG.  DLIS to ASCII 2.3                               :LAS Program name and version
CREA.        2019/12/12 08:42                          :LAS Creation date {YYYY/MM/DD hh:mm}
DLIS_CREA.  2010-Jan-21 21:56                          :DLIS Creation date and time {YYYY-MMM-DD hh:mm}
SOURCE.     RCI_k800g35.dlis                           :DLIS File Name
FILE-ID.     BATLAS.001                                :File Identification Number
#--------------------------------------------------
~WELL INFORMATION
#MNEM.UNIT      DATA             DESCRIPTION
#---- ------ --------------   -----------------------------
STRT .S            0.0       :START TIME
STOP .S          228.0       :STOP DEPTH
STEP .S            1.0       :STEP
NULL .          -999.25      :NULL VALUE
COMP .        ECOPETROL                                :COMPANY
WELL .        HECHICERA-1                              :WELL
FLD  .        CANO SUR                                 :FIELD
LOC  .                                                 :LOCATION
CNTY .                                                 :COUNTY
STAT .                                                 :STATE
CTRY .                                                 :COUNTRY
API  .                                                 :API NUMBER
UWI  .                                                 :UNIQUE WELL ID
DATE .                                                 :LOG DATE
SRVC .        ATLAS                                    :SERVICE COMPANY
LATI .DEG                                              :LATITUDE
LONG .DEG                                              :LONGITUDE
GDAT .                                                 :GeoDetic Datum
#-----------------------------------------------------------------------------
~PARAMETER INFORMATION
#MNEM.UNIT    VALUE                      DESCRIPTION
#---- -----   --------------------       ------------------------
RUN  .                                   :RUN NUMBER
PDAT .                                   :Permanent Datum
EPD  .                                   :Elevation of Permanent Datum above Mean Sea Level
LMF  .                                   :Logging Measured From (Name of Logging Elevation Reference)
APD  .                                   :Elevation of Depth Reference (LMF) above Permanent Datum
#-----------------------------------------------------------------------------
~CURVE INFORMATION
#MNEM.UNIT   API CODE                                  DESCRIPTION
#---- -----  --------                                  -----------------------
TTIM .S                                                :TIME {F10.1}
TIME .MS                                               :system time since record start {F13.4}
SEC  .S                                                :time in seconds {F13.4}
MIN  .MN                                               :time in minutes {F13.4}
ESEC .S                                                :Remainder of sec curve since RECORD mode started in seconds. {I11}
EMIN .MN                                               :Remainder of sec since RECORD mode started in minutes {I11}
EHR  .HR                                               :Whole hours since RECORD mode started. {I11}
HHMMSS.                                                :hours, minutes, seconds {I11}
BIT  .IN                                               :bit size {F13.4}
DEPTH.F                                                :system depth {F13.4}
WTBH .DEGF                                             :temperature of the borehole {F13.4}
WRM  .OHMM                                             :mud resistivity {F13.4}
APGC .PSI                                              :1970CB hydraulic system pressure {F13.4}
RTDC .DEGF                                             :1970CA motor temperature {F13.4}
ECLP .PSI                                              :pressure emergency close reservoir {F13.4}
FPAD .PSI                                              :packer extend pressure {F13.4}
RPAD .PSI                                              :packer retract pressure {F13.4}
RCPERM.                                                :Dielectric constant of fluid in R/C sensor {F13.4}
RCRES.OHMM                                             :Resistivity of fluid in R/C sensor {F13.4}
APQL .PSI                                              :1970LB Quartzdyne gauge pressure {F13.4}
ONESB.PSI                                              :Pressure less than 10 {F13.4}
TENSB.PSI                                              :Pressure less than 100.0 {F13.4}
DECSB.PSI                                              :Pressure less than 1.0 {F13.4}
HNDSB.PSI                                              :Pressure less than 0.1 {F13.4}
DPTL .P/MN                                             :1970LB differential pressure {F13.4}
RTDQL.DEGF                                             :1970LA Quartzdyne pressure gauge temperature {F13.4}
PEXR .PSI                                              :1970RB Pump Extend Pressure {F13.4}
PRER .PSI                                              :1970RB Pump Retracted Pressure {F13.4}
PSCR .                                                 :1970RB Pump Strokes Count {F13.4}
PTVR .C3                                               :1970RB Pumped volume {F13.4}
LMP  .CM                                               :pump piston position {F13.4}
PEXB .PSI                                              :piston extend pressure {F13.4}
PREB .PSI                                              :piston retract pressure {F13.4}
PVTT .DEGF                                             :pump chamber temperature {F13.4}
DDV  .C3                                               :drawdown volume {F13.4}
PVTV .C3                                               :PVT volume {F13.4}
PTV  .C3                                               :pt_vol for rci {F13.4}
BUQC .P/MN                                             :build-up quality curve {F13.4}
RTLQC.                                                 :Delta rtdql/delta time {F13.4}
RTKQC.                                                 :Delta rtdqk/delta time {F13.4}
PLCOR.PSI                                              :apqk depth corrected {F13.4}
CPTV .C3                                               :Cumulative pump-through volume {F13.4}
TEN  .LBF                                              :differential tension {F13.4}
CHT4 .LBF                                              :cable head tension {F13.4}
CHT  .LBF                                              :cable head tension {F13.4}
TTEN .LBF                                              :total tension {F13.4}
TTIM .S                                                :  3.000000 s frame 1 time {F13.4}
CMOSS.J.                                               :Clausius-Mossotti Refractive Index {F13.4}
FLCH2.J.                                               :Flourescence channel 2 (475 nm) {F13.4}
FLCH3.J.                                               :Flourescence channel 3 (525 nm) {F13.4}
FLCH4.J.                                               :Flourescence channel 4 (575 nm) {F13.4}
FLCH5.J.                                               :Flourescence channel 5 (632 nm) {F13.4}
FLCH6.J.                                               :Flourescence channel 6 (694 nm) {F13.4}
GASF.J.                                                :Gas Fraction {F13.4}
M1.J .                                                 :1670 nanometer optical density {F13.4}
M2.J .                                                 :1682 nanometer optical density {F13.4}
MUDF.J.                                                :Mud Fraction {F13.4}
NACL.J.PPM                                             :NaCl Concentration {F13.4}
OD1.J.                                                 :Optical Density, Channel 1 {F13.4}
OD10.J.                                                :Optical Density, Channel 10 {F13.4}
OD11.J.                                                :Optical Density, Channel 11 {F13.4}
OD12.J.                                                :Optical Density, Channel 12 {F13.4}
OD13.J.                                                :Optical Density, Channel 13 {F13.4}
OD14.J.                                                :Optical Density, Channel 14 {F13.4}
OD15.J.                                                :Optical Density, Channel 15 {F13.4}
OD16.J.                                                :Optical Density, Channel 16 {F13.4}
OD17.J.                                                :Optical Density, Channel 17 {F13.4}
OD18.J.                                                :Optical Density, Channel 18 {F13.4}
OD19.J.                                                :Optical Density, Channel 19 {F13.4}
OD2.J.                                                 :Optical Density, Channel 2 {F13.4}
OD20.J.                                                :Optical Density, Channel 20 {F13.4}
OD21.J.                                                :Optical Density, Channel 21 {F13.4}
OD22.J.                                                :Optical Density, Channel 22 {F13.4}
OD23.J.                                                :Optical Density, Channel 23 {F13.4}
OD3.J.                                                 :Optical Density, Channel 3 {F13.4}
OD4.J.                                                 :Optical Density, Channel 4 {F13.4}
OD5.J.                                                 :Optical Density, Channel 5 {F13.4}
OD6.J.                                                 :Optical Density, Channel 6 {F13.4}
OD7.J.                                                 :Optical Density, Channel 7 {F13.4}
OD8.J.                                                 :Optical Density, Channel 8 {F13.4}
OD9.J.                                                 :Optical Density, Channel 9 {F13.4}
OILF.J.                                                :Oil Fraction {F13.4}
REFRI.J.                                               :Refractive index, 1740 nm {F13.4}
WTRF.J.                                                :Water Fraction {F13.4}
#-----------------------------------------------------------------------------
#
#     TTIM        TIME         SEC          MIN          ESEC            EMIN            EHR             HHMMSS          BIT         DEPTH         WTBH         WRM          APGC         RTDC         ECLP         FPAD         RPAD        RCPERM       RCRES         APQL        ONESB        TENSB        DECSB        HNDSB         DPTL        RTDQL         PEXR         PRER         PSCR         PTVR         LMP          PEXB         PREB         PVTT         DDV          PVTV         PTV          BUQC        RTLQC        RTKQC        PLCOR         CPTV         TEN          CHT4         CHT          TTEN         TTIM       CMOSS.J      FLCH2.J      FLCH3.J      FLCH4.J      FLCH5.J      FLCH6.J       GASF.J        M1.J         M2.J        MUDF.J       NACL.J       OD1.J        OD10.J       OD11.J       OD12.J       OD13.J       OD14.J       OD15.J       OD16.J       OD17.J       OD18.J       OD19.J       OD2.J        OD20.J       OD21.J       OD22.J       OD23.J       OD3.J        OD4.J        OD5.J        OD6.J        OD7.J        OD8.J        OD9.J        OILF.J      REFRI.J       WTRF.J
#
~Ascii | Curve
# ...
      56.0   56000.0000      56.0000       0.9334         56          0          0     224030       8.5000    2853.5259     454.8964      42.3798      88.0000     213.8000    2855.0000      68.0000       0.0000      78.0000       0.3008    1402.0674       2.0674       2.0674       0.0674       0.0674       4.5523     160.2616     132.0000      63.0000       4.0000    1999.9996      12.6917    1916.0000       0.0000     154.4000       0.0000       0.0000       0.0000      -0.1210       0.1741       0.1741    1404.9237       0.0000     -23.1391   -2526.4009   -2526.4009    2680.9202      56.0000       0.8940    2512.8023    2003.3106    2941.9819    2273.0488    1476.8570       0.0000       4.2929       4.2822       1.0000 -999999.9999       3.6044       5.2531       5.4869       5.2396       4.6913       4.8967       5.1717       4.4934       4.4533       4.2929       4.2822       4.1841       5.0043       4.6281       0.2597       0.6170       4.6737       4.8839       4.8603       6.2388       5.0153       5.5293       5.2289       0.0000       5.1273       0.0000
      57.0   57000.0000      57.0000       0.9500         57          0          0     224031       8.5000    2853.5259     454.8964      42.3657      81.0000     213.6200    2855.0000      63.0000       0.0000      78.0000       0.2985    1402.1193       2.1193       2.1193       0.1193       0.0192       4.4697     160.2643     127.0000      58.0000       4.0000    1999.9996      12.6916    1911.0000       0.0000     154.7600       0.0000       0.0000       0.0000       0.0718       0.1736       0.1736    1404.9756       0.0000     -22.8346   -2566.1519   -2566.1519    2680.9202      57.0000       0.8940    2461.5461    2045.7203    3019.2529    2272.4424    1476.2878       0.0000       4.2052       4.2203       1.0000 -999999.9999       3.6053       5.0107       5.4382       5.3136       4.7774       5.0874       5.3137       4.6292       4.7324       4.2052       4.2203       4.3377       4.7788       4.8537       0.4451       0.6171       4.6297       4.8538       4.4757       6.5986       4.8914       5.6397       5.1521       0.0000       5.1273       0.0000
      58.0   58000.0000      58.0000       0.9667         58          0          0     224032       8.5000    2853.5259     454.8964      42.1555    6000.0000     213.6200    2850.0000      58.0000       0.0000      78.0000       0.2999    1402.3326       2.3326       2.3326       0.3326       0.0326       4.5913     160.2676     127.0000      53.0000       4.0000    1999.9996      12.6873    1911.0000       0.0000     155.1200       0.0000       0.0000       0.0000       0.3928       0.1730       0.1730    1405.1890       0.0000     -33.1738   -2531.5562   -2531.5562    2670.3901      58.0000       0.8949    2503.1430    2020.7760    2989.8556    2245.9285    1477.2912       0.0000       4.2607       4.2822       1.0000 -999999.9999       3.7755       5.0465       6.9588       5.3723       5.0785       5.3204       5.2055       4.6140       4.5273       4.2607       4.2822       4.3673       4.8130       4.7363       0.2306       0.6171       4.7231       4.9482       4.5686       6.3656       5.2664       5.4877       5.0561       0.0000       5.1537       0.0000
      59.0   59000.0000      59.0000       0.9834         59          0          0     224033       8.5000    2853.5259     454.8964      42.2656    6000.0000     213.9800    2835.0000     254.0000       0.0000      78.0000       0.2977    1406.7225       6.7225       6.7225       0.7225       0.0225       4.7701     160.2699     122.0000      48.0000       4.0000    1999.9996      12.6935    1916.0000       0.0000     154.7600       0.0000       0.0000       0.0000       3.2203       0.1729       0.1729    1409.5789       0.0000     -22.0487   -2607.7144   -2607.7144    2681.3535      59.0000       0.8959    2544.7398    1995.8317    2960.4583    2219.4146    1478.2946       0.0000       4.3161       4.3441       1.0000 -999999.9999       3.9456       5.0822       8.4794       5.4310       5.3795       5.5534       5.0974       4.5987       4.3222       4.3161       4.3441       4.3970       4.8472       4.6189       0.0162       0.6171       4.8165       5.0427       4.6616       6.1326       5.6414       5.3357       4.9601       0.0000       5.1801       0.0000
      60.0   60000.0000      60.0000       1.0000          0          1          0     224034       8.5000    2853.5259     454.8964      42.2214    1678.0000     212.5400    2830.0000    1818.0000       0.0000      78.0000       0.2952    1406.5106       6.5106       6.5106       0.5106       0.0106       4.9023     160.2729     127.0000      53.0000       4.0000    1999.9996      12.6907    1911.0000       0.0000     155.1200       0.0000       0.0000       0.0000      12.2366       0.1711       0.1711    1409.3669       0.0000      -4.3108   -2542.7991   -2542.7991    2698.9348      60.0000       0.8969    2586.3367    1970.8875    2931.0610    2192.9006    1479.2980       0.0000       4.3716       4.4060       1.0000 -999999.9999       4.1158       5.1180      10.0000       5.4897       5.6805       5.7864       4.9892       4.5835       4.1170       4.3716       4.4060       4.4266       4.8814       4.5015      -0.1983       0.6171       4.9099       5.1371       4.7545       5.8996       6.0164       5.1838       4.8641       0.0000       5.2065       0.0000
      61.0   61000.0000      61.0000       1.0167          1          1          0     224035       8.5000    2853.5259     454.8964      42.2171    1238.0000     212.3600    2835.0000    2811.0000       0.0000      78.0000       0.2995    1404.0026       4.0026       4.0026       0.0026       0.0025       5.0210     160.2760      88.0000      19.0000       4.0000    1999.9996      12.6934    1872.0000       0.0000     154.9400       0.0000       0.0000       0.0000      15.2197       0.1708       0.1708    1406.8589       0.0000      -1.2985   -2554.5737   -2554.5737    2701.8550      61.0000       0.8995    2556.2109    2045.6026    2820.2907    2179.3831    1462.7587       0.0000       4.3716       4.4060       1.0000 -999999.9999       4.1158       5.1180      10.0000       5.4897       5.6805       5.7864       4.9892       4.5835       4.1170       4.3716       4.4060       4.4266       4.8814       4.5015      -0.1983       0.6171       4.9099       5.1371       4.7545       5.8996       6.0164       5.1838       4.8641       0.0000       5.2805       0.0000
      62.0   62000.0000      62.0000       1.0334          2          1          0     224036       8.5000    2853.5259     454.8964      42.3116     163.0000     211.8200    2835.0000    2762.0000       0.0000      78.0000       0.3205    1403.1940       3.1940       3.1940       0.1940       0.0939       5.1277     160.2789      97.0000      24.0000       4.0000    1999.9996      12.6915    1887.0000       0.0000     155.1200       0.0000       0.0000       0.0000      14.8049       0.1719       0.1719    1406.0503       0.0000       0.0699   -2540.4512   -2540.4512    2703.1880      62.0000       0.9021    2526.0850    2120.3178    2709.5203    2165.8655    1446.2194       0.0000       4.3716       4.4060       1.0000 -999999.9999       4.1158       5.1180      10.0000       5.4897       5.6805       5.7864       4.9892       4.5835       4.1170       4.3716       4.4060       4.4266       4.8814       4.5015      -0.1983       0.6171       4.9099       5.1371       4.7545       5.8996       6.0164       5.1838       4.8641       0.0000       5.3544       0.0000
      63.0   63000.0000      63.0000       1.0500          3          1          0     224037       8.5000    2853.5259     454.8964      42.2403     162.0000     211.8200    2840.0000    2732.0000       0.0000      78.0000       0.3201    1403.0970       3.0970       3.0970       0.0970       0.0970       5.1758     160.2819      97.0000      24.0000       4.0000    1999.9996      12.6899    1887.0000       0.0000     155.4800       0.0000       0.0000       0.0000      13.6847       0.1731       0.1731    1405.9534       0.0000      -0.0924   -2591.2051   -2591.2051    2702.9456      63.0000       0.9047    2495.9592    2195.0330    2598.7500    2152.3479    1429.6802       0.0000       4.3716       4.4060       1.0000 -999999.9999       4.1158       5.1180      10.0000       5.4897       5.6805       5.7864       4.9892       4.5835       4.1170       4.3716       4.4060       4.4266       4.8814       4.5015      -0.1983       0.6171       4.9099       5.1371       4.7545       5.8996       6.0164       5.1838       4.8641       0.0000       5.4283       0.0000
